     3.04           OBSERVATION DATA    M                   RINEX VERSION / TYPE
ssrcrin-15.6.1x                         20240223 134411 UTC PGM / RUN BY / DATE 
(00000000019184418271000004) Septentrio proprietary         COMMENT             
SEPT                                                        MARKER NAME         
Unknown                                                     MARKER NUMBER       
Unknown             Unknown                                 OBSERVER / AGENCY   
3690826             SEPT MOSAIC-X5      4.14.0              REC # / TYPE / VERS 
Unknown             Unknown                                 ANT # / TYPE        
  4201734.6902   177836.3640  4779349.4835                  APPROX POSITION XYZ 
        0.0000        0.0000        0.0000                  ANTENNA: DELTA H/E/N
G    9 C1C L1C C1W C2W L2W C2L L2L C5Q L5Q                  SYS / # / OBS TYPES 
E   10 C1C L1C C6C L6C C5Q L5Q C7Q L7Q C8Q L8Q              SYS / # / OBS TYPES 
S    4 C1C L1C C5I L5I                                      SYS / # / OBS TYPES 
R    8 C1C L1C C2P L2P C2C L2C C3Q L3Q                      SYS / # / OBS TYPES 
C   12 C1P L1P C5P L5P C2I L2I C7I L7I C6I L6I C7D L7D      SYS / # / OBS TYPES 
J    6 C1C L1C C2L L2L C5Q L5Q                              SYS / # / OBS TYPES 
I    2 C5A L5A                                              SYS / # / OBS TYPES 
SEPTENTRIO RECEIVERS OUTPUT ALIGNED CARRIER PHASES.         COMMENT             
NO FURTHER PHASE SHIFT APPLIED IN THE RINEX ENCODER.        COMMENT             
G L1C                                                       SYS / PHASE SHIFT   
G L2W                                                       SYS / PHASE SHIFT   
G L2L  0.00000                                              SYS / PHASE SHIFT   
G L5Q  0.00000                                              SYS / PHASE SHIFT   
E L1C  0.00000                                              SYS / PHASE SHIFT   
E L6C  0.00000                                              SYS / PHASE SHIFT   
E L5Q  0.00000                                              SYS / PHASE SHIFT   
E L7Q  0.00000                                              SYS / PHASE SHIFT   
E L8Q  0.00000                                              SYS / PHASE SHIFT   
S L1C                                                       SYS / PHASE SHIFT   
S L5I                                                       SYS / PHASE SHIFT   
R L1C                                                       SYS / PHASE SHIFT   
R L2P  0.00000                                              SYS / PHASE SHIFT   
R L2C                                                       SYS / PHASE SHIFT   
R L3Q  0.00000                                              SYS / PHASE SHIFT   
C L1P  0.00000                                              SYS / PHASE SHIFT   
C L5P  0.00000                                              SYS / PHASE SHIFT   
C L2I                                                       SYS / PHASE SHIFT   
C L7I                                                       SYS / PHASE SHIFT   
C L6I                                                       SYS / PHASE SHIFT   
C L7D                                                       SYS / PHASE SHIFT   
J L1C                                                       SYS / PHASE SHIFT   
J L2L  0.00000                                              SYS / PHASE SHIFT   
J L5Q  0.00000                                              SYS / PHASE SHIFT   
I L5A                                                       SYS / PHASE SHIFT   
  2024     2    23    13    44   27.0000000     GPS         TIME OF FIRST OBS   
 C1C    0.000 C2C    0.000 C2P    0.000                     GLONASS COD/PHS/BIS 
    18                                                      LEAP SECONDS        
 14 R01  1 R02 -4 R03  5 R09 -2 R11  0 R12 -1 R13 -2 R14 -7 GLONASS SLOT / FRQ #
    R15  0 R16 -1 R21  4 R22 -3 R23  3 R24  2               GLONASS SLOT / FRQ #
                                                            END OF HEADER       
> 2024 02 23 13 44 27.0000000  0 20
R24  22442787.146 7 120011795.06007                                  22442797.127 6  93342454.31106
C12                                                                  22855393.139 6 119014038.20506  22855397.259 7  92029212.60507
E21  26449457.800 4                                                  26449458.576 3
C11                                                                  25342865.253 5 131966949.14205  25342868.414 5 102045235.81305
R23  20713773.130 6 110804712.60406
G31  22462981.240 7 118043755.64507                  22462980.568 5  91982146.19805  22462980.988 6  91982137.20106
G25                                                                                  23843531.624 3                  23843534.986 5  93567152.46205
G26  22841671.471 7 120033798.43907                  22841677.476 4  93532852.17204  22841676.095 6  93532846.20106  22841675.271 8  89635640.62608
C34                                  23732158.039 7  93130091.35907  23732155.027 7 123579577.80507
G29  22148925.434 6 116393382.58006                  22148923.626 6  90696138.42306  22148924.988 6  90696150.41806
S21  39707764.578 6 208665715.32706
C44                                  23422909.539 6  91916526.08306  23422963.655 4
G28  22697059.300 7 119273848.87307                  22697059.102 3  92940664.61403  22697059.505 6  92940652.58706  22697065.099 7  89068157.11407
G18  23808661.369 6 125115408.60206                                                  23808664.986 6  97492504.61706  23808668.900 7  93430405.06307
R12  24168128.047 5 129101793.40105
E26  25696764.021 6 135037407.38406                                  25696767.528 7 100839635.41307  25696766.935 6 103470232.35806
E33  28777987.849 6 151229342.63906                                  28777999.858 5 112931051.77605  28777995.442 4 115877066.71404
C25                                  23373797.679 7  91723801.63707  23373795.513 7 121713481.17507
R14                                                                  21837869.361 5  90539634.25405
S36  39684588.566 6 208543928.48006
> 2024 02 23 13 44 28.0000000  0 20
R24  20943212.990 7 111992898.62907                                  20943222.842 6  87105534.87806
C12                                                                  21356432.517 6 111208556.08006  21356436.485 7  85993518.70007
E21  24950903.886 4                                                  24950903.373 3
C11                                                                  23843382.723 5 124158754.91205  23843386.843 5  96007444.81005
R23  19214952.306 6 102787033.22506
G31  20964109.729 7 110167132.73107                  20964109.016 5  85844517.95305  20964109.473 6  85844508.96806
G25                                                                                  22345200.369 3                  22345206.373 5  87687389.02805
G26  21342314.497 7 112154624.20607                  21342320.462 4  87393235.89004  21342318.927 6  87393229.92506  21342318.261 8  83751841.68508
C34                                  22232860.432 7  87246525.44207  22232857.480 7 115772341.63307
G29  20650263.955 6 108517863.60306                  20650262.164 6  84559370.38806  20650263.573 6  84559382.38206
S21  38208850.649 6 200788868.37706
C44                                  21924238.784 6  86035420.32206  21924292.463 4
G28  21198527.217 7 111399009.96407                  21198527.063 3  86804426.49003  21198527.627 6  86804414.47906  21198532.987 7  83187595.58507
G18  22309167.798 6 117235517.43606                  22309169.287 3                  22309171.578 6  91352329.68106  22309175.406 7  87546070.75107
R12  22669931.797 5 121098693.40005
E26  24197481.680 6 127158624.93106                                  24197485.063 7  94956129.04707  24197484.479 6  97433243.23206
E33  27278439.903 6 143349164.80706                                  27278451.849 5 107046503.41705  27278447.751 4 109839008.37204
C25                                  21874691.049 7  85840985.19707  21874689.104 7 113907239.53407
R14                                                                  20338430.168 5  84322971.14005
S36  38185673.035 6 200667083.33106
> 2024 02 23 13 44 29.0000000  0 20
R24  20942603.951 7 111989643.20907                                  20942613.207 6  87103002.87606
C12                                                                  21356434.113 6 111208563.73506  21356438.090 7  85993524.59907
E21  24951309.511 4                                                  24951308.355 3
C11                                                                  23842864.057 5 124156063.77605  23842870.325 5  96005363.82705
R23  19215093.713 6 102787787.68206
G31  20964199.964 7 110167607.39407                  20964199.311 5  85844887.82205  20964199.834 6  85844878.82406
G25                                                                                  22345831.319 3                  22345836.613 5  87689862.89105
G26  21341921.601 7 112152559.88107                  21341927.603 4  87391627.32904  21341926.229 6  87391621.35206  21341925.433 8  83750300.14208
C34                                  22232526.787 7  87245215.83507  22232523.620 7 115770603.84307
G29  20650563.148 6 108519436.45906                  20650561.436 6  84560595.99006  20650562.988 6  84560607.95906
S21  38208899.698 6 200789119.41906
C44                                  21924528.918 6  86036558.63306
G28  21198955.534 7 111401259.65307                  21198955.145 3  86806179.48903  21198955.550 6  86806167.47906  21198961.049 7  83189275.53907
G18  22308639.449 6 117232739.81406                  22308640.732 3  91350154.24813  22308642.924 6  91350165.28306  22308646.850 7  87543996.56107
R12  22670692.126 5 121102760.13205
E26  24197163.161 6 127156950.55406                                  24197166.512 7  94954878.69307  24197165.898 7  97431960.24307
E33  27277857.090 6 143346101.63706                                  27277869.087 5 107044215.97305  27277864.800 4 109836661.27004
C25                                  21874547.449 7  85840421.36807  21874545.423 7 113906491.36107
R14                                                                  20337954.441 5  84321005.05805
S36  38185721.436 6 200667336.24506
> 2024 02 23 13 44 30.0000000  0 19
C12                                                                  21356435.598 6 111208571.77306  21356439.539 7  85993530.82107
E21  24951716.326 4                                                  24951714.772 3
C11                                                                  23842345.838 5 124153372.72405  23842353.943 5  96003282.94705
R23  19215235.076 6 102788542.89606
G31  20964290.330 7 110168082.65807                  20964289.723 5  85845258.15805  20964290.431 6  85845249.17406
G25                                                                                  22346462.976 3                  22346466.983 5  87692336.82005
G26  21341529.016 7 112150495.80507                  21341534.776 4  87390018.96004  21341533.653 6  87390012.98606  21341532.666 8  83748758.79208
C34                                  22232193.112 7  87243906.47507  22232189.577 7 115768866.37707
G29  20650862.542 6 108521009.64906                  20650860.785 6  84561821.85106  20650862.629 6  84561833.85606
S21  38208945.783 6 200789370.37806
C44                                  21924819.082 6  86037697.20106
G28  21199383.738 7 111403509.83007                  21199383.280 3  86807932.86703  21199383.789 6  86807920.85706  21199389.226 7  83190955.86607
G18  22308111.159 6 117229962.48506                  22308112.235 3  91347990.11303  22308114.563 6  91348001.15606  22308118.294 7  87541922.58407
R12  22671453.144 5 121106827.04905
E26  24196844.585 6 127155276.47706                                  24196847.904 7  94953628.57607  24196847.354 7  97430677.51807
E33  27277274.186 6 143343038.43206                                  27277286.360 5 107041928.49305  27277281.522 4 109834314.09504
C25                                  21874403.905 7  85839857.83407  21874401.638 7 113905743.56907
R14                                                                  20337480.087 5  84319039.33805
S36  38185769.037 6 200667589.09506
> 2024 02 23 13 44 31.0000000  0 18
C12                                                                  21356437.319 6 111208580.38606  21356441.145 7  85993537.48907
E21  24952122.805 4                                                  24952120.706 3
C11                                                                  23841828.328 5 124150682.05905  23841837.540 5  96001202.33505
R23  19215376.548 6 102789299.04506
G31  20964380.827 7 110168558.65207                  20964380.269 5  85845629.06405  20964380.587 6  85845620.06106
G25                                                                                  22347093.658 3                  22347097.701 5  87694811.01505
G26  21341136.227 7 112148432.13007                  21341142.060 4  87388410.90404  21341141.072 7  87388404.93707  21341139.960 8  83747217.74308
C34                                  22231859.507 7  87242597.43207  22231855.881 7 115767129.34707
G29  20651161.884 6 108522583.40206                  20651160.245 6  84563048.15506  20651161.547 6  84563060.14906
S21  38208994.416 6 200789621.37706
C44                                  21925109.309 6  86038836.16906
G28  21199812.038 6 111405760.60806                  21199811.617 3  86809686.72303  21199812.278 6  86809674.70606  21199817.549 7  83192636.64107
G18  22307582.456 6 117227185.57406                  22307583.824 3  91345826.29203  22307585.977 6  91345837.32106  22307589.848 7  87539848.91907
R12  22672214.314 5 121110894.35605
E26  24196526.086 6 127153602.83706                                  24196529.435 7  94952378.81407  24196528.852 7  97429395.15007
C25                                  21874260.420 7  85839294.69007  21874258.062 7 113904996.30707
R14                                                                  20337006.496 5  84317073.93305
S36  38185819.020 6 200667841.91606
> 2024 02 23 13 44 32.0000000  0 18
C12                                                                  21356439.059 6 111208589.29906  21356442.853 7  85993544.39007
E21  24952528.847 4                                                  24952527.494 4
C11                                                                                                  23841321.276 6  95999121.75006
R23  19215517.770 6 102790055.81706
G31  20964471.333 7 110169035.10207                  20964470.922 5  85846000.32405  20964471.416 6  85845991.33106
G25                                                                                  22347725.602 3                  22347727.841 5  87697285.20305
G26  21340743.769 7 112146368.57507                  21340749.393 4  87386802.94204  21340748.379 7  87386796.95907  21340747.285 8  83745676.77808
C34                                  22231525.977 7  87241288.54707  22231522.292 7 115765392.52207
G29  20651461.269 6 108524157.34706                  20651459.741 6  84564274.60706  20651461.078 6  84564286.58906
S21  38209041.247 6 200789872.19506
C44                                  21925399.600 6  86039975.29106
G28  21200240.317 6 111408011.78106                  21200239.998 3  86811440.88203  21200240.688 6  86811428.85706  21200245.945 7  83194317.70307
G18  22307054.104 6 117224408.85706                  22307055.457 3  91343662.61403  22307057.476 6  91343673.64506  22307061.415 7  87537775.39507
R12  22672975.409 5 121114961.69805
E26  24196207.871 6 127151929.41306                                  24196210.921 7  94951129.18407  24196210.385 7  97428112.92007
C25                                  21874116.991 7  85838731.73707  21874114.864 7 113904249.29907
R14                                                                  20336531.241 5  84315108.73205
S36  38185869.353 6 200668094.51806
> 2024 02 23 13 44 33.0000000  0 18
C12                                                                  21356440.932 6 111208598.86906  21356444.668 7  85993551.79207
E21  24952935.559 4                                                  24952933.316 3
C11                                                                                                  23840805.224 6  95997041.50306
R23  19215659.217 6 102790813.60706
G31  20964561.805 7 110169512.42307                  20964561.772 5  85846372.26305  20964562.353 6  85846363.27606
G25                                                                                  22348356.489 3                  22348358.329 5  87699759.75805
G26  21340351.161 7 112144305.49107                  21340356.861 4  87385195.35604  21340356.074 7  87385189.39107  21340354.691 8  83744136.17508
C34                                  22231192.503 7  87239980.08907  22231188.913 7 115763656.25607
G29  20651760.827 6 108525731.89306                  20651759.362 6  84565501.52406  20651760.894 6  84565513.52306
S21  38209089.903 6 200790123.18806
C44                                  21925690.089 6  86041114.85806
G28  21200668.613 6 111410263.68606                  21200668.460 3  86813195.60803  21200669.058 6  86813183.60306  21200674.421 7  83195999.31607
G18  22306525.745 6 117221632.71006                  22306527.251 3  91341499.39303  22306528.964 6  91341510.40706  22306533.114 7  87535702.30207
R12  22673736.668 5 121119029.51105
E26  24195889.478 7 127150256.57007                                  24195892.542 7  94949879.98907  24195891.978 7  97426831.13107
C25                                  21873973.655 7  85838169.25607  21873971.471 7 113903502.90407
R14                                                                  20336055.918 5  84313143.96805
S36  38185918.487 6 200668347.32606
> 2024 02 23 13 44 34.0000000  0 18
C12                                                                  21356442.918 6 111208608.68206  21356446.542 7  85993559.37407
E21  24953341.636 4                                                  24953338.829 3
C11                                                                                                  23840289.009 6  95994961.25306
R23  19215801.013 6 102791571.93906
G31  20964652.462 7 110169990.15107                  20964652.671 5  85846744.52105  20964653.256 6  85846735.52606
G25                                                                                  22348987.659 3                  22348988.603 5  87702234.23205
G26  21339958.521 7 112142242.47507                  21339964.293 4  87383587.82104  21339963.425 7  87383581.83207  21339962.113 8  83742595.61008
C34                                  22230859.124 7  87238671.74907  22230855.701 7 115761920.12907
G29  20652060.311 6 108527306.61306                  20652059.028 6  84566728.57506  20652060.468 6  84566740.56006
S21  38209137.003 6 200790373.95106
C44                                  21925980.521 6  86042254.52106
G28  21201097.067 6 111412515.90806                  21201097.065 3  86814950.58303  21201097.623 6  86814938.55306  21201102.930 7  83197681.17407
G18  22305997.620 6 117218856.68206                  22305999.121 3  91339336.25603  22306000.660 6  91339347.27806  22306004.847 7  87533629.30107
R12  22674497.914 5 121123097.26605
E26  24195571.290 7 127148583.86607                                  24195574.201 7  94948630.89207  24195573.691 7  97425549.45107
C25                                  21873830.357 7  85837606.90907  21873828.280 7 113902756.69207
R14  20335577.465 6                                                  20335582.220 5  84311179.36105
S36  38185966.709 6 200668599.77206
> 2024 02 23 13 44 35.0000000  0 19
C12                                                                  21356444.841 6 111208618.69806  21356448.567 7  85993567.11107
E21  24953748.075 4                                                  24953745.143 3
C11                                                                                                  23839772.907 6  95992880.96106
R23  19215942.810 6 102792330.77706
G31  20964743.341 7 110170468.24207                  20964743.678 4  85847117.06004  20964744.203 6  85847108.07506
G25                                                                                  22349618.851 4                  22349618.312 5  87704708.67705
G26  21339566.101 7 112140179.45707                  21339571.720 4  87381980.27704  21339570.929 7  87381974.29907  21339569.527 8  83741055.04908
C34                                  22230525.733 7  87237363.48307  22230522.350 7 115760184.11107
G29  20652359.971 6 108528881.43306                  20652358.711 6  84567955.70806  20652360.084 6  84567967.70406
R24  20938952.415 7 111969984.90217
S21  38209183.736 6 200790624.41606
C44                                  21926271.029 6  86043394.28706
G28  21201525.403 6 111414768.38406                  21201525.760 3  86816705.75603  21201526.234 6  86816693.75606  21201531.499 7  83199363.22607
G18  22305469.542 6 117216080.71206                  22305471.054 3  91337173.16003  22305472.234 6  91337184.19406  22305476.593 7  87531556.34807
R12  22675260.086 5 121127164.94205
E26  24195253.036 7 127146911.25907                                  24195255.935 7  94947381.85807  24195255.374 7  97424267.83607
C25                                  21873687.088 7  85837044.66507  21873685.275 7 113902010.62807
R14  20335103.728 6 108397544.59616                                  20335109.249 5  84309214.82305
S36  38186013.795 6 200668851.90706
> 2024 02 23 13 44 36.0000000  0 19
C12                                                                  21356446.509 6 111208628.53906  21356450.477 7  85993574.73007
E21  24954153.883 4                                                  24954151.489 4
C11                                                                                                  23839256.324 6  95990800.37606
R23  19216084.313 6 102793089.82306
G31  20964834.302 7 110170946.35807                  20964834.684 4  85847489.61604  20964835.220 6  85847480.60706
G25                                                                                  22350248.406 3                  22350248.268 5  87707182.80405
G26  21339173.694 7 112138116.14607                  21339179.112 4  87380372.51104  21339178.297 7  87380366.52807  21339176.981 8  83739514.26708
C34                                  22230192.322 7  87236055.01307  22230188.933 7 115758447.84207
G29  20652659.335 6 108530456.04706                  20652658.364 6  84569182.68006  20652659.477 6  84569194.69006
R24  20938344.256 7 111966731.70507                                                                  20938340.037 7  83952771.75817
S21  38209231.336 6 200790874.21806
C44                                  21926561.417 6  86044533.88706
G28  21201953.988 7 111417020.77907                  21201954.436 3  86818460.86103  21201954.721 6  86818448.87106  21201960.027 7  83201045.20607
G18  22304941.326 6 117213304.47606                  22304942.839 3  91335009.86203  22304943.789 6  91335020.88906  22304948.332 7  87529483.17507
R12  22676020.776 5 121131232.24505
E26  24194934.725 7 127145238.36607                                  24194937.574 7  94946132.63407  24194937.030 7  97422986.01907
C25                                  21873543.826 7  85836482.29107  21873541.957 7 113901264.38107
R14  20334629.526 6 108395018.60306                                  20334635.522 5  84307250.14205
S36  38186063.810 6 200669103.38306
> 2024 02 23 13 44 37.0000000  0 19
C12                                                                  21356448.440 6 111208638.27706  21356452.248 7  85993582.26507
E21  24954559.469 4                                                  24954557.776 3
C11                                                                  23838712.831 4                  23838739.971 6  95988719.54706
R23  19216226.315 6 102793849.06706
G31  20964925.233 7 110171424.51607                  20964925.682 4  85847862.20704  20964926.266 6  85847853.22106
G25                                                                                  22350878.346 4                  22350878.604 5  87709656.64505
G26  21338780.962 7 112136052.51707                  21338786.476 4  87378764.48504  21338785.774 7  87378758.51007  21338784.318 8  83737973.25608
C34                                  22229858.809 7  87234746.39707  22229855.632 7 115756711.36207
G29  20652958.888 6 108532030.48706                  20652957.967 6  84570409.51906  20652959.154 6  84570421.50106
R24  20937735.995 7 111963478.40407                                                                  20937731.651 6  83950332.43706
S21  38209278.440 6 200791123.41406
C44                                  21926851.729 6  86045673.33606
G28  21202382.586 6 111419273.13906                  21202383.082 3  86820215.94003  21202383.287 6  86820203.95406  21202388.552 7  83202727.15707
G18  22304413.007 6 117210528.03406                  22304414.624 3  91332846.40403  22304415.305 6  91332857.43706  22304419.994 7  87527409.85007
R12  22676781.823 5 121135299.18705
E26  24194616.293 7 127143565.27607                                  24194619.180 7  94944883.25507  24194618.613 6  97421704.05306
C25                                  21873400.457 7  85835919.79407  21873398.680 7 113900517.97507
R14  20334155.807 6 108392492.32306                                  20334162.307 5  84305285.32005
S36  38186110.418 6 200669354.36606
> 2024 02 23 13 44 38.0000000  0 19
C12                                                                  21356450.265 6 111208648.41806  21356454.144 7  85993590.10307
E21  24954964.553 4                                                  24954963.401 4
C11                                                                  23838196.671 4                  23838223.057 6  95986638.81006
R23  19216368.327 6 102794609.06706
G31  20965016.519 7 110171903.26807                  20965016.818 4  85848235.26204  20965017.548 6  85848226.26706
G25                                                                                  22351506.913 3                  22351508.797 5  87712130.57205
G26  21338388.208 7 112133989.13107                  21338393.872 4  87377156.65304  21338393.150 7  87377150.67207  21338391.655 8  83736432.41808
C34                                  22229525.404 7  87233437.99407  22229522.312 7 115754975.17007
G29  20653258.529 6 108533605.27606                  20653257.633 6  84571636.62406  20653258.832 6  84571648.62106
R24  20937127.595 7 111960225.52407                                  20937136.377 6  87080201.51016  20937123.336 6  83947893.42506
S21  38209325.101 6 200791372.49806
C44                                  21927142.200 6  86046813.03406
G28  21202811.309 6 111421525.97806                  21202811.749 3  86821971.40303  21202812.098 6  86821959.39506  21202817.179 7  83204409.46307
G18  22303884.407 6 117207751.83506                  22303886.463 3  91330683.13603  22303886.772 6  91330694.15106  22303891.721 7  87525336.73607
R12  22677542.526 5 121139366.26705
E26  24194297.927 7 127141892.50007                                  24194300.830 7  94943634.10807  24194300.225 6  97420422.30206
C25                                  21873257.160 7  85835357.57707  21873255.379 7 113899771.93907
R14  20333681.623 6 108389966.38406                                  20333688.549 5  84303320.73405
S36  38186156.283 6 200669605.16706
> 2024 02 23 13 44 39.0000000  0 20
C12                                                                  21356452.331 6 111208658.69206  21356456.017 7  85993598.03407
E21  24955369.914 4                                                  24955368.611 4
C11                                                                  23837683.329 5                  23837706.469 6  95984558.00006
R23  19216510.676 6 102795369.53206
G31  20965107.738 7 110172382.34707                  20965108.034 4  85848608.56704  20965108.786 6  85848599.56906
G25                                                                                  22352138.324 3                  22352139.179 5  87714604.44205
G26  21337995.406 7 112131925.72507                  21338001.241 4  87375548.80504  21338000.316 7  87375542.81007  21337998.958 8  83734891.56408
C34                                  22229191.975 7  87232129.64607  22229188.907 7 115753239.04107
G29  20653558.641 6 108535180.07306                  20653557.307 6  84572863.74006  20653558.669 6  84572875.75806
R24  20936519.481 7 111956972.80107                                  20936527.852 6  87077671.62106  20936515.101 6  83945454.53006
S21  38209373.024 6 200791621.23906
C44                                  21927432.645 6  86047952.76806
G28  21203240.216 6 111423779.03906                  21203240.529 3  86823727.03503  21203240.917 6  86823715.02906  21203245.862 7  83206091.92907
G18  22303355.984 6 117204975.66706                  22303358.266 3  91328519.89203  22303358.364 6  91328530.93806  22303363.406 7  87523263.61707
R12  22678304.477 5 121143433.27805
E26  24193979.668 7 127140219.73807                                  24193982.488 7  94942384.95607  24193981.966 6  97419140.58006
C24                                  22325255.973 7  87609099.66217  22325252.279 6 116253447.12516
C25                                  21873113.841 7  85834795.43307  21873112.068 7 113899026.01007
R14  20333208.169 5 108387440.48205                                  20333213.894 5  84301356.12905
S36  38186205.047 6 200669855.58306
> 2024 02 23 13 44 40.0000000  0 20
C12                                                                  21356454.152 6 111208669.28306  21356457.998 7  85993606.22807
E21  24955775.750 4                                                  24955773.699 3
C11                                                                                                  23837189.628 6  95982477.26306
R23  19216652.713 6 102796130.67206
G31  20965199.048 7 110172861.87607                  20965199.336 4  85848982.22504  20965200.059 6  85848973.23206
G25                                                                                  22352768.635 3                  22352769.495 5  87717078.31305
G26  21337602.722 7 112129862.43507                  21337608.597 4  87373941.04704  21337607.560 6  87373935.06306  21337606.225 8  83733350.80008
C34                                  22228858.585 7  87230821.42907  22228855.589 7 115751503.10507
G29  20653858.381 7 108536755.18707                  20653857.022 6  84574091.10306  20653858.375 6  84574103.10206
R24  20935911.635 7 111953720.35207                                  20935920.177 6  87075141.92606  20935906.926 6  83943015.84706
S21  38209420.365 6 200791869.77706
C44                                  21927723.039 6  86049092.71006  21927735.474 4
G28  21203668.965 7 111426032.44307                  21203669.353 3  86825482.93203  21203669.838 6  86825470.93306  21203674.603 7  83207774.66907
G18  22302827.597 6 117202199.70106                  22302830.051 3  91326356.81103  22302830.441 6  91326367.83806  22302835.163 7  87521190.65707
R12  22679066.705 5 121147500.48405
E26  24193661.355 7 127138547.18707                                  24193664.167 7  94941135.98807  24193663.675 6  97417859.01606
C24                                  22325727.671 7  87610950.92107  22325724.080 6 116255903.68506
C25                                  21872970.538 7  85834233.48707  21872968.430 7 113898280.30907
R14  20332734.071 5 108384914.83805                                  20332740.469 5  84299391.73405
S36  38186252.039 6 200670105.77906
> 2024 02 23 13 44 41.0000000  0 20
C12                                                                  21356456.131 6 111208680.30806  21356460.131 7  85993614.76107
E21  24956181.952 5                                                  24956179.723 3
C11                                                                                                  23836672.691 6  95980396.63206
R23  19216795.384 6 102796892.55706
G31  20965290.367 7 110173342.01907                  20965290.714 4  85849356.35704  20965291.637 6  85849347.37606
G25                                                                                  22353399.930 3                  22353400.227 5  87719552.34305
G26  21337210.108 7 112127799.39507                  21337216.002 4  87372333.48504  21337215.162 7  87372327.50807  21337213.543 8  83731810.22308
C34                                  22228525.291 7  87229513.47307  22228522.145 7 115749767.50007
G29  20654158.503 6 108538330.67506                  20654156.804 6  84575318.75606  20654158.043 6  84575330.74506
R24  20935303.430 7 111950468.33807                                  20935312.345 6  87072612.59706  20935298.808 6  83940577.47306
S21  38209468.582 6 200792118.25106
C44                                  21928013.465 6  86050232.90706  21928027.793 4
G28  21204097.963 7 111428286.35507                  21204098.231 3  86827239.22803  21204098.862 6  86827227.22406  21204103.430 7  83209457.78707
G18  22302299.329 6 117199424.04306                  22302301.840 3  91324193.96403  22302302.443 6  91324204.97506  22302306.903 7  87519117.93307
R12  22679827.832 5 121151567.77505
E26  24193343.140 7 127136875.00607                                  24193345.905 7  94939887.27907  24193345.438 6  97416577.73506
C24                                  22326199.463 7  87612802.41807  22326195.917 6 116258360.54106
C25                                  21872827.311 7  85833671.82407  21872825.138 7 113897535.01707
R14  20332260.306 5 108382389.58505                                  20332265.495 5  84297427.63405
S36  38186300.328 6 200670355.90106
> 2024 02 23 13 44 42.0000000  0 20
C12                                                                  21356458.389 6 111208691.38306  21356462.331 7  85993623.32307
E21  24956588.449 5                                                  24956585.004 3
C11                                                                                                  23836155.780 6  95978315.87206
R23  19216938.042 6 102797654.81206
G31  20965381.857 7 110173822.35707                  20965382.154 4  85849730.64604  20965383.024 6  85849721.65306
G25                                                                                  22354029.986 3                  22354030.924 5  87722026.14905
G26  21336817.493 7 112125736.21907                  21336823.398 4  87370725.81504  21336822.391 6  87370719.83906  21336820.871 8  83730269.54408
C34                                  22228191.980 7  87228205.46107  22228188.643 7 115748031.82307
G29  20654458.291 7 108539906.11507                  20654456.600 6  84576546.36906  20654457.995 6  84576558.36806
R24  20934695.494 7 111947216.33507                                  20934704.534 6  87070083.25606  20934690.671 7  83938139.13107
S21  38209516.465 6 200792366.24706
C44                                  21928303.830 6  86051373.07506  21928319.334 4
G28  21204527.000 7 111430540.36007                  21204527.193 3  86828995.59103  21204527.948 6  86828983.58106  21204532.332 7  83211140.97507
G18  22301771.059 6 117196648.28206                  22301773.742 3  91322031.03503  22301774.508 6  91322042.06506  22301778.667 7  87517045.13207
R12  22680589.601 5 121155634.87505
E26  24193024.997 7 127135202.72207                                  24193027.693 7  94938638.50107  24193027.180 6  97415296.38806
C24                                  22326671.304 7  87614653.84007  22326667.606 6 116260817.30206
C25                                  21872684.121 7  85833110.16507  21872682.129 7 113896789.70407
R14  20331786.710 5 108379864.31805                                  20331791.356 4  84295463.56404
S36  38186349.015 6 200670605.51006
> 2024 02 23 13 44 43.0000000  0 20
C12                                                                  21356460.502 6 111208702.38606  21356464.446 7  85993631.83007
E21  24956995.117 5                                                  24956990.325 3
C11                                                                                                  23835638.742 6  95976234.85806
R23  19217080.744 6 102798417.32106
G31  20965473.414 7 110174302.80807                  20965473.598 4  85850105.02604  20965474.252 6  85850096.04406
G25                                                                                  22354657.891 3                  22354661.445 5  87724499.77405
G26  21336424.994 7 112123672.80307                  21336430.781 4  87369117.96304  21336429.496 6  87369111.98506  21336428.130 8  83728728.68208
C34                                  22227858.601 7  87226897.32207  22227855.169 7 115746295.97007
G29  20654758.058 7 108541481.43007                  20654756.359 6  84577773.89406  20654757.923 6  84577785.88006
R24  20934087.389 7 111943964.25907                                  20934096.438 6  87067553.87206  20934082.494 7  83935700.71807
S21  38209562.321 6 200792613.65406
C44                                  21928594.206 6  86052513.14606  21928609.185 4
G28  21204956.039 7 111432794.37407                  21204956.152 3  86830751.96403  21204956.516 6  86830739.95906  21204961.196 7  83212824.17207
G18  22301242.914 6 117193872.35206                  22301245.643 3  91319867.98103  22301246.296 6  91319878.99706  22301250.409 7  87514972.20007
R12  22681351.106 5 121159701.63205
E26  24192706.748 7 127133530.29207                                  24192709.494 7  94937389.61607  24192709.002 6  97414014.91606
C24                                  22327143.076 7  87616505.12907  22327139.314 6 116263273.89006
C25                                  21872540.950 7  85832548.42607  21872539.110 7 113896044.28907
R14  20331312.852 5 108377338.92205                                  20331317.308 4  84293499.39104
S36  38186395.368 6 200670854.58706
> 2024 02 23 13 44 44.0000000  0 20
C12                                                                  21356462.945 6 111208713.67006  21356466.798 7  85993640.55707
E21  24957401.457 5                                                  24957395.915 4
C11                                                                  23835109.910 4                  23835122.058 6  95974153.92806
R23  19217223.149 6 102799180.46806
G31  20965564.797 7 110174783.71807                  20965565.119 4  85850479.76104  20965565.988 6  85850470.76906
G25                                                                                  22355288.658 3                  22355291.686 4  87726973.41304
G26  21336032.314 7 112121609.48607                  21336038.172 4  87367510.19104  21336036.932 6  87367504.21306  21336035.469 8  83727187.90508
C34                                  22227525.258 7  87225589.34407  22227521.932 7 115744560.32507
G29  20655057.961 6 108543056.96706                  20655056.164 6  84579001.58806  20655057.427 6  84579013.56506
R24  20933478.999 7 111940712.53007                                  20933488.304 6  87065024.74206  20933474.402 6  83933262.57106
S21  38209608.821 6 200792860.90306
C44                                  21928884.670 6  86053653.37806  21928899.952 4
G28  21205385.044 7 111435048.76907                  21205385.155 3  86832508.64303  21205385.586 6  86832496.62406  21205390.191 7  83214507.64707
G18  22300714.976 6 117191096.60906                  22300717.536 3  91317705.07403  22300718.327 6  91317716.07306  22300722.157 7  87512899.43307
R12  22682113.102 5 121163768.47505
E26  24192388.712 7 127131858.06507                                  24192391.272 7  94936140.87307  24192390.743 6  97412733.59206
C24                                  22327614.851 7  87618356.54107  22327610.989 6 116265730.63906
C25                                  21872397.884 7  85831986.86507  21872395.949 7 113895299.12907
R14  20330838.841 5 108374813.66505                                  20330842.805 4  84291535.24704
S36  38186441.403 6 200671103.54606
> 2024 02 23 13 44 45.0000000  0 20
C12                                                                  21356465.480 6 111208725.43706  21356469.159 7  85993649.65907
E21  24957807.579 5                                                  24957801.804 4
C11                                                                  23834593.263 4                  23834605.220 6  95972073.12606
R23  19217365.905 6 102799944.42306
G31  20965656.520 7 110175265.30807                  20965656.783 4  85850855.02604  20965657.654 6  85850846.03306
G25                                                                                  22355919.121 3                  22355921.962 4  87729447.16004
G26  21335639.744 7 112119546.49307                  21335645.635 4  87365902.66604  21335644.194 6  87365896.68706  21335642.872 8  83725647.36208
C34                                  22227192.029 7  87224281.63807  22227188.643 7 115742825.05607
G29  20655357.632 6 108544632.91106                  20655356.062 6  84580229.59206  20655357.468 6  84580241.57706
R24  20932870.830 7 111937461.24007                                  20932880.182 6  87062495.97006  20932866.512 7  83930824.76107
S21  38209658.273 6 200793108.10806
C44                                  21929175.311 6  86054793.91106  21929190.594 4
G28  21205814.226 7 111437303.68607                  21205814.341 3  86834265.71403  21205814.798 6  86834253.70006  21205819.258 7  83216191.51507
G18  22300186.646 6 117188321.19906                  22300189.553 3  91315542.41303  22300190.271 6  91315553.41506  22300193.924 7  87510826.87207
R12  22682874.633 5 121167835.58705
E26  24192070.561 7 127130186.17307                                  24192073.152 7  94934892.38707  24192072.592 6  97411452.55106
C24                                  22328086.701 7  87620208.19407  22328082.799 6 116268187.68606
C25                                  21872254.922 7  85831425.64707  21872252.959 7 113894554.43107
R14  20330365.214 5 108372288.85405                                  20330368.881 4  84289571.53004
S36  38186490.175 6 200671352.38406
> 2024 02 23 13 44 46.0000000  0 20
C12                                                                  21356468.087 6 111208737.52806  21356471.341 7  85993659.01307
E21  24958213.607 5                                                  24958207.241 4
C11                                                                  23834076.952 5                  23834088.431 6  95969992.41006
R23  19217508.819 6 102800709.03006
G31  20965748.232 7 110175747.36507                  20965748.550 4  85851230.65904  20965749.414 6  85851221.67906
G25                                                                                  22356550.259 3                  22356552.475 5  87731920.99505
G26  21335247.236 7 112117483.64907                  21335253.094 4  87364295.25804  21335251.661 6  87364289.27506  21335250.271 8  83724106.92708
C34                                  22226858.809 7  87222974.09007  22226855.617 7 115741090.02607
G29  20655657.550 6 108546209.11006                  20655656.010 6  84581457.80106  20655657.398 6  84581469.78406
R24  20932262.899 7 111934210.28007                                  20932271.441 6  87059967.46706  20932258.645 7  83928387.20207
S21  38209705.561 6 200793355.15106
C44                                  21929466.031 6  86055934.62906  21929481.115 4
G28  21206243.521 7 111439559.00207                  21206243.563 3  86836023.10003  21206243.933 6  86836011.09706  21206248.360 7  83217875.67007
G18  22299658.330 6 117185546.01506                  22299661.553 3  91313379.93403  22299662.415 6  91313390.94606  22299665.811 7  87508754.49007
R12  22683636.267 5 121171902.76905
E26  24191752.504 7 127128514.53507                                  24191755.053 7  94933644.08907  24191754.493 6  97410171.67006
C24                                  22328558.638 7  87622060.00307  22328554.771 6 116270644.96506
C25                                  21872111.912 7  85830864.62507  21872109.833 7 113893809.99207
R14  20329891.621 5 108369764.25205                                  20329896.127 4  84287607.92004
S36  38186536.327 6 200671601.13406
> 2024 02 23 13 44 47.0000000  0 20
C12                                                                  21356470.782 6 111208749.70306  21356473.640 7  85993668.42507
E21  24958620.127 5                                                  24958613.099 4
C11                                                                  23833560.430 5                  23833571.566 6  95967911.55706
R23  19217651.788 6 102801474.05106
G31  20965839.941 7 110176229.67507                  20965840.361 4  85851606.48604  20965841.323 6  85851597.50306
G25                                                                                  22357181.599 3                  22357182.861 4  87734394.67904
G26  21334854.675 7 112115420.68707                  21334860.521 4  87362687.75704  21334858.931 6  87362681.78306  21334857.645 8  83722566.40508
C34                                  22226525.634 7  87221666.54307  22226522.484 7 115739354.96207
G29  20655957.319 6 108547785.32606                  20655955.953 6  84582686.01206  20655957.077 6  84582698.00906
R24  20931655.094 7 111930959.41107                                  20931664.115 6  87057439.02906  20931650.724 7  83925949.69707
S21  38209752.651 6 200793601.77906
C44                                  21929756.774 6  86057075.34506  21929771.578 4
G28  21206672.655 7 111441814.47907                  21206672.861 3  86837780.61403  21206673.128 6  86837768.59506  21206677.509 7  83219559.95407
G18  22299130.273 6 117182770.78506                  22299133.504 3  91311217.41803  22299134.236 6  91311228.44206  22299137.716 7  87506682.09907
R12  22684397.449 5 121175969.80805
E26  24191434.423 7 127126842.87307                                  24191436.917 7  94932395.77107  24191436.361 6  97408890.79006
C24                                  22329030.501 7  87623911.79207  22329026.773 6 116273102.21006
C25                                  21871968.981 7  85830303.62307  21871966.864 7 113893065.56107
R14  20329417.857 6 108367239.59806                                  20329421.601 4  84285644.24704
S36  38186585.036 6 200671849.48906
> 2024 02 23 13 44 48.0000000  0 20
C12                                                                  21356473.481 6 111208761.79106  21356475.889 7  85993677.76707
E21  24959025.904 5                                                  24959019.346 3
C11                                                                  23833043.158 5                  23833054.765 6  95965830.45206
R23  19217795.099 6 102802239.33406
G31  20965931.680 7 110176712.10107                  20965932.204 4  85851982.40004  20965933.356 6  85851973.41206
G25                                                                                  22357811.069 3                  22357813.177 5  87736868.10405
G26  21334462.125 7 112113357.48607                  21334467.886 4  87361080.06604  21334466.456 6  87361074.09206  21334465.046 8  83721025.71208
C34                                  22226192.455 7  87220358.85907  22226189.135 7 115737619.71607
G29  20656256.973 6 108549361.39506                  20656255.882 6  84583914.11906  20656256.949 6  84583926.10806
R24  20931047.252 7 111927708.45107                                  20931056.292 6  87054910.46806  20931042.835 7  83923512.12307
S21  38209798.731 6 200793847.81106
C44                                  21930047.380 6  86058215.94506  21930062.583 4
G28  21207101.628 7 111444069.93607                  21207102.173 3  86839538.11203  21207102.277 6  86839526.10106  21207106.672 7  83221244.21907
G18  22298602.310 6 117179995.34106                  22298605.454 3  91309054.73903  22298606.064 6  91309065.76106  22298609.596 7  87504609.53507
R12  22685158.501 6 121180036.50406
E26  24191116.398 7 127125171.01107                                  24191118.744 7  94931147.29607  24191118.202 6  97407609.76706
C24                                  22329502.414 7  87625763.40307  22329498.671 6 116275559.23006
C25                                  21871826.003 7  85829742.55107  21871823.941 7 113892321.03807
R14  20328943.245 5 108364714.83605                                  20328947.632 4  84283680.65404
S36  38186631.984 6 200672097.28706
> 2024 02 23 13 44 49.0000000  0 20
C12                                                                  21356475.899 6 111208774.06406  21356478.281 7  85993687.25607
E21  24959431.368 5                                                  24959424.815 4
C11                                                                  23832526.408 5                  23832538.093 6  95963749.30106
R23  19217938.200 6 102803005.09906
G31  20966023.630 7 110177194.82407                  20966024.100 4  85852358.54404  20966024.887 6  85852349.55606
G25                                                                                  22358441.420 3                  22358443.663 4  87739341.44004
G26  21334069.324 7 112111294.24707                  21334075.228 4  87359472.35004  21334073.688 6  87359466.37606  21334072.390 7  83719484.98507
C34                                  22225859.295 7  87219051.21907  22225855.949 7 115735884.53707
G29  20656556.956 6 108550937.57106                  20656555.816 6  84585142.30806  20656556.779 6  84585154.28806
R24  20930439.257 7 111924457.65107                                  20930448.021 6  87052382.09106  20930434.978 7  83921074.68607
S21  38209844.185 6 200794093.52306
C44                                  21930338.106 6  86059356.61206  21930352.420 4
G28  21207530.713 7 111446325.61907                  21207531.417 3  86841295.78203  21207531.461 6  86841283.77606  21207535.944 7  83222928.66207
G18  22298074.472 6 117177219.98406                  22298077.409 3  91306892.12103  22298078.071 6  91306903.14206  22298081.444 7  87502537.02007
R12  22685919.557 5 121184103.12605
E26  24190798.427 7 127123499.23707                                  24190800.625 7  94929898.91207  24190800.036 6  97406328.79506
C24                                  22329974.322 7  87627615.06307  22329970.367 6 116278016.30206
C25                                  21871683.022 7  85829181.54807  21871680.864 7 113891576.61507
R14  20328468.885 5 108362190.19605                                  20328474.093 4  84281717.02704
S36  38186679.039 6 200672344.81506
> 2024 02 23 13 44 50.0000000  0 20
C12                                                                  21356478.159 6 111208786.66106  21356480.754 7  85993697.00107
E21  24959837.700 5                                                  24959830.731 4
C11                                                                  23832009.685 5                  23832021.501 6  95961668.21506
R23  19218081.482 6 102803771.55706
G31  20966115.648 7 110177678.09407                  20966116.104 4  85852735.12004  20966116.811 6  85852726.12906
G25                                                                                  22359072.201 3                  22359073.802 4  87741814.86304
G26  21333676.700 7 112109231.19807                  21333682.642 4  87357864.78304  21333681.189 6  87357858.80506  21333679.832 8  83717944.39508
C34                                  22225526.094 7  87217743.76007  22225522.681 7 115734149.58507
G29  20656856.908 6 108552514.00306                  20656855.804 6  84586370.69406  20656856.930 6  84586382.68906
R24  20929831.432 7 111921207.19407                                  20929840.521 6  87049853.96406  20929827.164 7  83918637.48007
S21  38209891.911 6 200794339.07706
C44                                  21930628.871 6  86060497.48206  21930643.531 4
G28  21207959.891 7 111448581.71907                  21207960.711 3  86843053.78103  21207961.040 6  86843041.77706  21207965.225 7  83224613.40507
G18  22297546.520 6 117174444.82706                  22297549.395 3  91304729.66003  22297549.980 6  91304740.68206  22297553.323 7  87500464.65607
R12  22686681.342 5 121188169.85305
E26  24190480.502 7 127121827.68907                                  24190482.580 7  94928650.67907  24190481.901 6  97405048.00406
C24                                  22330446.211 7  87629466.86107  22330442.105 6 116280473.56406
C25                                  21871540.112 7  85828620.78807  21871538.018 7 113890832.50107
R14  20327995.218 5 108359665.82405                                  20327999.521 4  84279753.61204
S36  38186724.144 6 200672592.14206
> 2024 02 23 13 44 51.0000000  0 20
C12                                                                  21356480.190 6 111208799.71906  21356483.391 7  85993707.09907
E21  24960243.290 5                                                  24960236.951 4
C11                                                                  23831493.070 5                  23831504.742 6  95959587.31106
R23  19218225.356 6 102804538.80106
G31  20966207.803 7 110178161.97207                  20966208.232 4  85853112.16504  20966208.685 6  85853103.17606
G25                                                                                  22359701.233 3                  22359704.001 4  87744288.40404
G26  21333284.132 7 112107168.42607                  21333290.114 4  87356257.43304  21333288.716 6  87356251.46306  21333287.369 8  83716404.02708
C34                                  22225193.010 7  87216436.57007  22225189.406 7 115732414.99307
G29  20657156.910 6 108554090.83706                  20657155.863 6  84587599.39506  20657157.043 6  84587611.38606
R24  20929223.826 7 111917957.19307                                  20929232.756 6  87047326.19106  20929219.422 7  83916200.63807
S21  38209937.808 6 200794584.56606
C44                                  21930919.625 6  86061638.64806  21930934.442 4
G28  21208389.303 7 111450838.34107                  21208390.175 3  86844812.18303  21208390.448 6  86844800.16306  21208394.696 7  83226298.53807
G18  22297018.671 6 117171670.01106                  22297021.440 3  91302567.46603  22297022.108 6  91302578.48906  22297025.223 7  87498392.55707
R12  22687443.255 6 121192236.79406
E26  24190162.450 7 127120156.50707                                  24190164.542 7  94927402.71907  24190163.878 6  97403767.48506
C24                                  22330918.140 7  87631318.92807  22330914.254 6 116282931.16006
C25                                  21871397.267 7  85828060.34107  21871395.235 7 113890088.79307
R14  20327521.736 5 108357141.82405                                  20327526.371 4  84277790.57204
S36  38186771.306 6 200672839.40106
> 2024 02 23 13 44 52.0000000  0 20
C12                                                                  21356482.591 6 111208812.96906  21356485.966 7  85993717.34507
E21  24960649.340 5                                                  24960642.357 4
C11                                                                  23830976.825 5                  23830987.974 6  95957506.36806
R23  19218368.899 6 102805306.58006
G31  20966300.064 7 110178646.20007                  20966300.406 4  85853489.48504  20966300.587 6  85853480.48606
G25                                                                                  22360332.550 3                  22360334.497 4  87746761.98504
G26  21332891.481 7 112105105.65007                  21332897.551 4  87354650.07804  21332895.930 7  87354644.10607  21332894.850 8  83714863.64408
C34                                  22224859.904 7  87215129.43907  22224856.298 7 115730680.48907
G29  20657456.696 6 108555667.82606                  20657455.963 6  84588828.22106  20657456.903 6  84588840.19006
R24  20928616.326 7 111914707.39207                                  20928625.654 6  87044798.56706  20928611.741 7  83913763.92307
S21  38209984.362 6 200794829.75706
C44                                  21931210.503 6  86062779.89506  21931225.383 5
G28  21208818.891 7 111453095.20207                  21208819.544 3  86846570.77703  21208819.869 6  86846558.78006  21208824.223 7  83227983.86307
G18  22296490.649 6 117168895.28106                  22296493.449 3  91300405.34503  22296494.275 6  91300416.34706  22296497.263 7  87496320.51507
R12  22688204.820 5 121196303.69705
E26  24189844.321 7 127118485.42307                                  24189846.523 7  94926154.83907  24189845.809 6  97402487.04906
C24                                  22331390.072 7  87633171.03207  22331386.331 6 116285388.85006
C25                                  21871254.410 7  85827499.98907  21871252.633 7 113889345.23707
R14  20327048.957 5 108354617.91905                                  20327052.608 4  84275827.55504
S36  38186816.653 6 200673086.29806
> 2024 02 23 13 44 53.0000000  0 20
C12                                                                  21356484.965 6 111208826.31906  21356488.649 7  85993727.66407
E21  24961055.404 5                                                  24961048.135 4
C11                                                                  23830460.053 5                  23830471.018 6  95955425.28306
R23  19218512.528 6 102806074.77506
G31  20966392.363 7 110179130.72907                  20966392.620 4  85853867.04204  20966392.824 6  85853858.05306
G25                                                                                  22360961.381 4                  22360964.403 4  87749235.29604
G26  21332499.056 7 112103042.82907                  21332505.000 4  87353042.69304  21332503.560 6  87353036.72506  21332502.283 8  83713323.23208
C34                                  22224526.770 7  87213822.32607  22224523.229 7 115728946.00207
G29  20657756.592 6 108557244.79606                  20657756.063 6  84590057.02706  20657757.053 6  84590069.01606
R24  20928008.620 7 111911457.68707                                  20928017.871 6  87042271.02206  20928004.015 7  83911327.30807
S21  38210029.637 6 200795074.57106
C44                                  21931501.384 6  86063921.14806  21931516.772 4
G28  21209248.355 7 111455352.24707                  21209249.012 3  86848329.51203  21209249.373 6  86848317.52306  21209253.808 7  83229669.32907
G18  22295962.744 6 117166120.49806                  22295965.466 3  91298243.18303  22295965.708 6  91298254.19706  22295969.271 7  87494248.45707
R12  22688965.493 5 121200370.44705
E26  24189526.143 7 127116814.32907                                  24189528.498 7  94924906.93707  24189527.739 6  97401206.59406
C24                                  22331862.017 7  87635023.12107  22331858.391 6 116287846.47206
C25                                  21871111.654 7  85826939.70207  21871109.912 7 113888601.77507
R14  20326574.933 5 108352094.04605                                  20326580.392 4  84273864.46204
S36  38186867.052 6 200673332.78406
> 2024 02 23 13 44 54.0000000  0 20
C12                                                                  21356487.483 6 111208839.66906  21356491.203 7  85993737.99007
E21  24961461.369 5                                                  24961452.839 3
C11                                                                  23829943.129 5                  23829954.018 6  95953344.03606
R23  19218656.044 6 102806843.32006
G31  20966484.544 7 110179615.42807                  20966484.878 4  85854244.72704  20966485.304 6  85854235.73606
G25                                                                                  22361593.610 4                  22361594.257 4  87751708.52204
G26  21332106.566 7 112100979.82907                  21332112.419 4  87351435.16304  21332111.033 6  87351429.18906  21332109.724 8  83711782.68408
C34                                  22224193.728 7  87212515.12607  22224189.936 7 115727211.40807
G29  20658056.661 6 108558821.72006                  20658056.149 6  84591285.79706  20658057.180 6  84591297.79606
R24  20927400.924 7 111908207.96907                                  20927410.061 6  87039743.46706  20927396.336 7  83908890.67307
S21  38210076.866 6 200795318.86506
C44                                  21931792.233 6  86065062.36506  21931806.582 4
G28  21209677.719 7 111457609.36207                  21209678.610 3  86850088.29803  21209678.660 6  86850076.31106  21209683.380 7  83231354.83507
G18  22295434.264 6 117163345.62106                  22295437.439 3  91296080.94903  22295437.463 6  91296091.95906  22295441.283 7  87492176.31007
R12  22689727.133 5 121204436.94505
E26  24189207.893 7 127115143.11807                                  24189210.484 7  94923658.97407  24189209.737 6  97399926.07906
C24                                  22332333.940 7  87636875.10907  22332330.218 6 116290303.99106
C25                                  21870968.878 7  85826379.37807  21870966.943 7 113887858.24907
R14  20326100.980 5 108349570.11405                                  20326108.574 4  84271901.43804
S36  38186913.450 6 200673578.77706
> 2024 02 23 13 44 55.0000000  0 20
C12                                                                  21356489.995 6 111208852.93606  21356493.694 7  85993748.26307
E21  24961867.468 5                                                  24961858.245 4
C11                                                                  23829426.147 5                  23829436.906 6  95951262.53706
R23  19218799.967 6 102807612.10406
G31  20966576.805 7 110180100.21707                  20966577.177 4  85854622.48504  20966577.528 6  85854613.50106
G25                                                                                  22362225.008 4                  22362224.928 4  87754181.46104
G26  21331714.157 7 112098916.58307                  21331719.801 4  87349827.44404  21331718.571 6  87349821.46606  21331717.031 7  83710241.95607
C34                                  22223860.615 7  87211207.80807  22223856.579 7 115725476.65007
G29  20658356.800 6 108560398.50506                  20658356.195 6  84592514.46006  20658357.413 6  84592526.46606
R24  20926793.005 7 111904958.20207                                  20926802.425 6  87037215.88006  20926788.705 7  83906453.99507
S21  38210123.237 6 200795562.59106
C44                                  21932083.031 6  86066203.47606  21932097.971 4
G28  21210107.146 7 111459866.49107                  21210108.230 3  86851847.09103  21210108.321 6  86851835.08806  21210112.875 7  83233040.33507
G18  22294906.306 6 117160570.56306                  22294909.426 3  91293918.56703  22294909.144 6  91293929.57506  22294913.195 7  87490104.02007
R12  22690488.125 5 121208503.13605
E26  24188889.534 7 127113471.75407                                  24188892.433 7  94922410.87307  24188891.651 6  97398645.41406
C24                                  22332805.828 7  87638726.95107  22332802.267 6 116292761.30006
C25                                  21870826.028 7  85825818.97507  21870823.792 7 113887114.62907
R14  20325627.790 5 108347046.04105                                  20325635.307 4  84269938.29904
S36  38186960.536 6 200673824.32406
> 2024 02 23 13 44 56.0000000  0 20
C12                                                                  21356492.528 6 111208866.33006  21356496.215 7  85993758.61807
E21  24962273.317 5                                                  24962264.188 3
C11                                                                  23828909.295 5                  23828919.914 6  95949180.95906
R23  19218944.051 6 102808381.32306
G31  20966668.989 7 110180585.26907                  20966669.503 4  85855000.45204  20966669.852 6  85854991.46806
G25                                                                                  22362857.018 4                  22362854.851 4  87756654.29304
G26  21331321.672 7 112096853.24507                  21331327.139 4  87348219.64704  21331325.874 6  87348213.67606  21331324.306 7  83708701.15607
C34                                  22223527.551 7  87209900.48807  22223523.410 7 115723741.90307
G29  20658656.904 6 108561975.35606                  20658656.258 6  84593743.17306  20658657.314 6  84593755.15506
R24  20926185.438 7 111901708.51607                                  20926194.349 6  87034688.35806  20926181.000 7  83904017.38207
S21  38210169.429 6 200795805.88906
C44                                  21932373.871 6  86067344.61006  21932389.414 4
G28  21210536.839 6 111462123.77806                  21210537.868 3  86853606.01703  21210537.777 6  86853594.01006  21210542.384 7  83234725.97107
G18  22294377.905 6 117157795.48506                  22294381.354 3  91291756.17303  22294381.003 6  91291767.16906  22294385.138 7  87488031.72507
R12  22691249.138 5 121212569.17705
E26  24188571.280 7 127111800.41707                                  24188574.402 7  94921162.79907  24188573.624 6  97397364.78206
C24                                  22333277.718 7  87640578.77807  22333274.226 6 116295218.60606
C25                                  21870683.240 7  85825258.59807  21870680.880 7 113886371.02307
R14  20325154.227 5 108344522.02105                                  20325160.975 4  84267975.09904
S36  38187006.558 6 200674069.43006
> 2024 02 23 13 44 57.0000000  0 20
C12                                                                  21356495.266 6 111208880.00206  21356498.858 7  85993769.20207
E21  24962678.831 4                                                  24962671.311 4
C11                                                                  23828392.348 5                  23828403.063 6  95947099.37306
R23  19219087.906 6 102809151.19606
G31  20966761.233 7 110181070.71607                  20966761.931 4  85855378.72304  20966762.469 6  85855369.77206
G25                                                                                  22363485.871 3                  22363484.003 4  87759127.20304
G26  21330929.100 7 112094790.04007                  21330934.508 4  87346611.96204  21330933.118 6  87346605.99206  21330931.629 7  83707160.44707
C34                                  22223194.486 7  87208593.26407  22223190.215 7 115722007.27507
G29  20658956.901 6 108563552.48106                  20658956.367 6  84594972.10206  20658957.326 6  84594984.09706
R24  20925577.683 7 111898459.02007                                  20925586.871 6  87032160.98706  20925573.342 7  83901580.90307
S21  38210215.080 6 200796048.91806
C44                                  21932664.659 6  86068485.95106  21932679.103 5
G28  21210966.405 6 111464381.35606                  21210967.551 3  86855365.17203  21210967.479 6  86855353.16906  21210971.986 7  83236411.82607
G18  22293849.841 6 117155020.51906                  22293853.300 3  91289593.86003  22293852.967 6  91289604.89106  22293857.130 7  87485959.53107
R12  22692010.181 5 121216635.29005
E26  24188253.166 7 127110129.23007                                  24188256.330 7  94919914.84507  24188255.634 6  97396084.27506
C24                                  22333749.682 7  87642430.72107  22333746.190 6 116297676.04006
C25                                  21870540.481 7  85824698.41907  21870538.076 7 113885627.69707
R14  20324681.124 6 108341998.15206                                  20324687.304 4  84266012.12804
S36  38187054.740 6 200674314.26506
> 2024 02 23 13 44 58.0000000  0 20
C12                                                                  21356498.002 6 111208894.10106  21356501.487 7  85993780.08707
E21  24963082.882 4                                                  24963079.034 4
C11                                                                  23827876.140 5                  23827886.387 6  95945017.96606
R23  19219231.789 6 102809921.79606
G31  20966853.626 7 110181556.80807                  20966854.467 4  85855757.51404  20966855.111 6  85855748.54206
G25                                                                                  22364114.961 3                  22364113.338 4  87761600.17604
G26  21330536.431 7 112092727.04007                  21330541.927 4  87345004.43104  21330540.493 7  87344998.44807  21330539.004 8  83705619.89008
C34                                  22222861.445 7  87207286.33207  22222857.341 6 115720273.00806
G29  20659256.651 6 108565129.91106                  20659256.538 6  84596201.27006  20659257.342 6  84596213.23106
R24  20924969.974 7 111895210.05807                                  20924979.425 6  87029634.00206  20924965.705 7  83899144.83207
S21  38210260.140 6 200796291.92506
C44                                  21932955.607 6  86069627.48106  21932967.764 5
G28  21211396.178 6 111466639.46006                  21211397.336 3  86857124.72703  21211396.832 6  86857112.75406  21211401.668 7  83238098.08807
G18  22293321.873 6 117152245.95706                  22293325.286 3  91287431.86203  22293324.891 6  91287442.86806  22293329.119 7  87483887.60507
R12  22692771.261 5 121220701.60005
E26  24187935.305 7 127108458.39407                                  24187938.453 7  94918667.14907  24187937.680 6  97394804.02606
C24                                  22334221.768 7  87644282.90407  22334218.154 6 116300133.81406
C25                                  21870397.922 7  85824138.51207  21870395.342 6 113884884.70806
R14  20324208.723 6 108339474.61406                                  20324213.848 5  84264049.36505
S36  38187104.419 6 200674559.16206
> 2024 02 23 13 44 59.0000000  0 20
C12                                                                  21356500.920 6 111208908.51206  21356504.391 7  85993791.22407
E21                                                                  24963486.497 5
C11                                                                  23827360.427 6                  23827369.693 6  95942936.51006
R23  19219375.703 6 102810693.08806
G31  20966946.258 7 110182043.33707                  20966947.110 4  85856136.63904  20966947.484 6  85856127.65906
G25                                                                                  22364746.032 3                  22364742.896 4  87764073.13604
G26  21330143.893 7 112090664.17107                  21330149.349 4  87343397.00504  21330147.987 7  87343391.03907  21330146.366 7  83704079.43507
C34                                  22222528.452 7  87205979.46307  22222524.401 7 115718538.85607
G29  20659556.587 6 108566707.57506                  20659556.785 6  84597430.62306  20659557.529 6  84597442.62306
R24  20924362.432 7 111891961.26507                                  20924371.725 6  87027107.17206  20924358.214 7  83896708.87907
S21  38210308.469 6 200796534.55506
C44                                  21933246.617 6  86070769.26306  21933257.561 5
G28  21211825.993 6 111468897.83006                  21211827.131 3  86858884.49903  21211826.859 6  86858872.53606  21211831.412 7  83239784.53707
G18  22292793.941 6 117149471.45206                  22292797.295 3  91285269.91403  22292796.852 6  91285280.91306  22292801.117 7  87481815.74007
R12  22693532.046 5 121224767.95805
E26  24187617.473 7 127106787.73507                                  24187620.677 7  94917419.57407  24187619.823 6  97393523.89106
C24                                  22334693.839 7  87646135.18007  22334690.050 6 116302591.68906
C25                                  21870255.404 7  85823578.78507  21870252.697 7 113884141.96407
R14  20323735.501 6 108336951.34206                                  20323740.931 5  84262086.83205
S36  38187151.184 6 200674803.71406
> 2024 02 23 13 45  0.0000000  0 20
C12                                                                  21356503.821 6 111208922.94506  21356507.275 7  85993802.38507
E21                                                                  24963893.643 4
C11                                                                  23826845.082 6                  23826852.831 6  95940855.01506
R23  19219519.505 6 102811464.69306
G31  20967039.157 7 110182530.22507                  20967039.780 4  85856516.03604  20967040.108 6  85856507.03306
G25                                                                                  22365375.006 4                  22365374.208 4  87766545.84004
G26  21329750.773 7 112088601.25907                  21329756.804 4  87341789.54804  21329755.581 6  87341783.54806  21329753.732 7  83702538.96307
C34                                  22222195.541 7  87204672.69107  22222191.567 7 115716804.80307
G29  20659856.924 6 108568285.14506                  20659857.041 6  84598659.90506  20659857.790 6  84598671.89506
R24  20923755.007 7 111888712.72607                                  20923763.954 6  87024580.52406  20923750.602 7  83894273.13407
S21  38210357.291 6 200796776.94106
C44                                  21933537.698 6  86071910.92206  21933546.522 5
G28  21212255.766 6 111471156.50706                  21212257.015 3  86860644.52403  21212256.327 6  86860632.54806  21212261.253 7  83241471.21707
G18  22292265.951 6 117146696.96006                  22292269.335 3  91283107.97003  22292268.975 6  91283119.00306  22292273.112 7  87479743.89107
R12  22694292.192 5 121228834.13505
E26  24187299.754 7 127105117.03407                                  24187303.012 7  94916171.96507  24187302.063 6  97392243.74806
C24                                  22335165.894 7  87647987.41007  22335162.072 6 116305049.51706
C25                                  21870112.959 7  85823019.12607  21870110.343 7 113883399.31507
R14  20323262.323 6 108334428.02406                                  20323267.036 5  84260124.29505
S36  38187197.563 6 200675047.94806
> 2024 02 23 13 45  1.0000000  0 20
C12                                                                  21356506.802 6 111208937.66906  21356509.942 7  85993813.72607
E21                                                                  24964299.532 4
C11                                                                  23826327.550 5                  23826336.521 6  95938773.95706
R23  19219664.059 6 102812236.71006
G31  20967131.855 7 110183017.57807                  20967132.535 4  85856895.79304  20967132.434 6  85856886.70406
G25                                                                                  22366005.103 3                  22366003.201 4  87769018.80504
G26  21329357.697 7 112086538.21607                  21329364.222 4  87340181.98504  21329363.009 7  87340175.98407  21329360.968 8  83700998.37308
C34                                  22221862.538 7  87203366.29707  22221858.436 7 115715071.23707
G29  20660157.748 6 108569862.57606                  20660157.275 5  84599889.07605  20660158.115 6  84599901.15206
R24  20923147.611 7 111885464.88307                                  20923156.231 6  87022054.40406  20923143.178 7  83891837.90107
S21  38210400.567 6 200797019.63706
C44                                  21933828.668 6  86073052.50506  21933836.637 5
G28  21212685.364 6 111473415.87706                  21212686.992 3  86862405.06603  21212686.364 6  86862393.10606  21212691.187 7  83243158.38307
G18  22291737.907 7 117143923.15607                  22291741.505 3  91280946.56703  22291741.008 6  91280957.60206  22291745.237 7  87477672.50507
R12  22695052.847 5 121232900.91305
E26  24186982.105 6 127103446.82706                                  24186985.277 7  94914924.70207  24186984.141 6  97390963.94206
C24                                  22335637.990 7  87649839.99107  22335633.939 6 116307507.80806
C25                                  21869970.432 7  85822459.52607  21869967.648 7 113882656.75007
R14  20322789.038 6 108331904.48306                                  20322794.029 5  84258161.56205
S36  38187242.289 6 200675292.58406
> 2024 02 23 13 45  2.0000000  0 20
C12                                                                  21356509.946 6 111208953.05306  21356512.680 7  85993825.64307
E21  24964694.996 4                                                  24964703.194 4
C11                                                                  23825810.876 5                  23825819.410 5  95936694.18505
R23  19219807.798 6 102813009.20406
G31  20967224.724 7 110183506.11807                  20967225.477 4  85857276.45204  20967224.599 6  85857267.44706
G25                                                                                  22366632.990 3                  22366635.249 5  87771492.32605
G26  21328965.263 7 112084475.18907                  21328971.578 4  87338574.43004  21328970.005 6  87338568.46606  21328968.535 8  83699457.77408
C34                                  22221530.003 7  87202061.23807  22221525.675 7 115713339.47007
G29  20660457.852 6 108571439.77906                  20660457.441 5  84601118.07005  20660458.035 6  84601130.01406
R24  20922540.927 7 111882219.58107                                  20922549.309 6  87019530.21906  20922536.002 6  83889404.52806
S21  38210446.383 6 200797264.38406
C44                                  21934119.467 6  86074193.82706  21934126.170 5
G28  21213115.931 7 111475677.29307                  21213117.310 3  86864167.21203  21213116.531 6  86864155.26706  21213121.755 7  83244847.07907
G18  22291210.284 7 117141151.44707                  22291214.010 3  91278786.78103  22291213.464 6  91278797.74706  22291217.663 7  87475602.67407
R12  22695814.463 4 121236968.96504
E26  24186663.840 6 127101777.96706                                  24186668.011 7  94913678.46607  24186666.749 7  97389685.21607
C24                                  22336110.249 7  87651693.70507  22336106.725 6 116309967.59906
C25                                  21869827.727 7  85821900.26407  21869825.012 7 113881914.65907
R14  20322315.170 5 108329380.56705                                  20322321.228 5  84256198.59505
S36  38187291.459 6 200675539.40706
> 2024 02 23 13 45  3.0000000  0 19
C12                                                                  21356513.069 6 111208969.05706  21356515.615 7  85993838.05107
E21  24965101.997 4                                                  24965109.652 4
C11                                                                  23825294.543 5 124064551.31415  23825302.388 5
R23  19219952.128 6 102813782.55206
G31  20967317.290 7 110183995.38407                  20967318.525 4  85857657.69504  20967317.250 6  85857648.66706
G25                                                                                  22367264.696 3
G26  21328572.752 7 112082412.22007                  21328578.814 4  87336966.92804  21328577.001 6  87336960.93306  21328576.115 8  83697917.25508
C34                                  22221197.666 7  87200756.70007  22221192.911 7 115711608.42707
G29  20660758.007 6 108573017.31606                  20660757.638 6  84602347.31906  20660758.577 6  84602359.28206
R24  20921934.269 7 111878975.18007                                  20921942.848 6  87017006.94106  20921929.055 6  83886972.01206
S21  38210491.918 6 200797509.72206
C44                                  21934409.934 6  86075335.43806  21934415.415 4
G28  21213546.764 7 111477939.68507                  21213547.801 3  86865930.12803  21213547.211 6  86865918.04706  21213552.408 7  83246536.50307
G18  22290683.403 7 117138380.58907                  22290686.662 3  91276627.65903  22290686.038 6  91276638.65806  22290690.333 7  87473533.58007
R12  22696577.649 4 121241036.79604
E26  24186346.481 6 127100109.94006                                  24186350.376 7  94912432.90907  24186349.520 7  97388407.16307
C24                                  22336582.658 7  87653548.06307  22336580.210 6 116312428.19106
C25                                  21869685.190 7  85821341.28207  21869682.964 7 113881172.84707
R14  20321839.542 6 108326856.56006                                  20321848.694 5  84254235.39405
> 2024 02 23 13 45  4.0000000  0 19
C12                                                                  21356516.351 6 111208985.18606  21356518.617 7  85993850.55407
E21  24965509.134 4                                                  24965511.884 4
C11                                                                  23824778.409 5                  23824784.801 5
R23  19220096.945 6 102814556.33206
G31  20967411.201 7 110184484.87707                  20967411.614 4  85858039.11704  20967410.614 6  85858030.16406
G25                                                                                  22367894.936 3                  22367900.057 4  87776440.45904
G26  21328180.755 7 112080349.27707                  21328186.059 4  87335359.43504  21328184.186 6  87335353.40206  21328183.511 8  83696376.72908
C34                                  22220865.062 7  87199452.22207  22220859.977 6 115709877.46706
G29  20661058.416 7 108574594.84907                  20661057.856 6  84603576.55806  20661058.900 6  84603588.50606
R24  20921327.650 7 111875731.11107                                  20921336.256 6  87014483.75206  20921322.089 6  83884539.57106
S21  38210537.770 6 200797754.64706
C44                                  21934700.954 6  86076477.06206
G28  21213977.595 6 111480202.19406                  21213978.330 3  86867693.11603  21213978.217 6  86867681.13106  21213983.176 7  83248226.11007
G18  22290156.303 7 117135609.74807                  22290159.407 3  91274468.57603  22290159.206 6  91274479.64006  22290162.818 7  87471464.47907
R12  22697338.405 5 121245104.83805
E26  24186029.201 6 127098441.94906                                  24186032.999 7  94911187.29607  24186032.336 7  97387129.06607
C24                                  22337055.072 7  87655402.36607  22337052.483 6 116314888.80306
C25                                  21869543.006 7  85820782.40207  21869541.460 7 113880431.15707
R14  20321366.512 6 108324332.67806                                  20321375.821 5  84252272.26905
> 2024 02 23 13 45  5.0000000  0 19
C12                                                                  21356519.591 6 111209000.80406  21356521.481 7  85993862.63007
E21                                                                  24965918.578 4
C11                                                                  23824261.976 5                  23824267.438 5
R23  19220241.508 6 102815329.54006
G31  20967504.646 7 110184974.95307                  20967504.833 4  85858421.00104  20967504.475 6  85858411.95806
G25                                                                                  22368528.059 3
G26  21327788.055 6 112078286.04906                  21327793.377 4  87333751.72604  21327791.472 6  87333745.76606  21327791.200 7  83694836.10707
C34                                  22220532.641 7  87198148.02107  22220527.343 6 115708146.75506
G29  20661358.503 7 108576171.05507                  20661357.822 6  84604804.76006  20661358.734 6  84604816.78806
R24  20920720.911 7 111872487.76107                                  20920729.988 6  87011961.08906  20920715.623 6  83882107.64306
S21  38210584.132 6 200797999.84506
C44                                  21934991.383 6  86077617.68606
G28  21214408.420 6 111482465.41206                  21214408.947 3  86869456.66303  21214408.900 6  86869444.65106  21214413.867 7  83249916.15907
G18  22289629.489 7 117132838.95907                  22289632.152 3  91272309.53703  22289632.002 6  91272320.56706  22289635.602 7  87469395.33807
R12  22698098.643 4 121249172.41204
E26  24185711.642 6 127096773.50006                                  24185715.742 7  94909941.46507  24185714.825 7  97385850.71007
C24                                  22337527.367 8  87657256.42808  22337524.772 6 116317349.04906
C25                                  21869400.663 7  85820223.40407  21869398.299 7 113879689.48207
R14  20320892.655 6
> 2024 02 23 13 45  6.0000000  0 18
C12                                                                  21356522.461 6 111209016.52806  21356524.436 7  85993874.78607
E21  24966323.555 3                                                  24966323.425 3
C11                                                                  23823745.902 6                  23823750.842 6
R23  19220385.656 6 102816102.79306
G31  20967597.169 7 110185464.80007                  20967598.013 4  85858802.70304  20967597.944 6  85858793.75006
G26  21327395.487 5 112076222.33505                  21327400.538 4  87332143.65504  21327398.358 5  87332137.14505  21327398.378 6  83693294.48206
C34                                  22220200.372 7  87196844.17007  22220195.161 6 115706416.73206
G29  20661658.336 7 108577746.74707                  20661657.702 6  84606032.56906  20661658.686 6  84606044.57406
R24  20920114.447 7 111869245.42307                                  20920123.905 6  87009439.31106  20920109.176 6  83879676.56706
S21  38210631.575 6 200798245.84906
C44                                  21935281.737 6  86078757.87306  21935284.009 5
G28  21214839.285 7 111484729.40107                  21214839.723 3  86871220.80103  21214840.128 6  86871208.77006  21214844.677 7  83251606.67407
G18  22289102.576 6 117130069.39406                  22289105.112 3  91270151.43603  22289104.685 6  91270162.47606  22289108.822 8  87467327.19708
R12  22698862.782 4
E26  24185394.434 7 127095105.87007                                  24185398.448 7  94908696.15307  24185397.502 7  97384572.92007
C24                                  22337999.761 7  87659111.18307  22337997.056 6 116319810.15806
C25                                  21869257.863 7  85819663.83407  21869255.645 6 113878947.02306
R14  20320418.195 6                                                  20320426.847 6
> 2024 02 23 13 45  7.0000000  0 17
C12                                                                  21356525.236 6 111209033.07906  21356527.630 7  85993887.57407
E21  24966730.311 4                                                  24966730.531 3
C11                                                                  23823230.102 6                  23823234.873 6
R23  19220530.534 6 102816876.74806
G31  20967690.710 7 110185955.40307                  20967691.329 4  85859184.99704  20967691.630 6  85859176.01706
G26                                                                                  21327005.965 4  87330528.76804  21327006.767 5  83691753.37205
C34                                  22219868.286 7  87195541.52407  22219863.033 6 115704688.09206
G29  20661958.003 6 108579322.44106                  20661957.597 6  84607260.37706  20661958.795 6  84607272.38906
R24  20919508.515 7 111866005.20107                                  20919518.062 6  87006919.16906  20919503.297 6  83877247.11706
S21  38210678.774 6 200798493.70106
C44                                  21935572.299 6  86079898.16306  21935576.822 4
G28  21215270.375 7 111486995.10507                  21215270.875 3  86872986.26703  21215271.386 6  86872974.18806  21215275.745 7  83253298.59507
G18  22288576.017 6 117127302.09406                  22288578.475 3  91267995.07803  22288578.060 6  91268006.04906  22288582.126 7  87465260.66907
E26  24185077.641 6 127093440.20206                                  24185081.411 6  94907452.22406  24185080.811 6  97383296.60106
C24                                  22338472.793 7  87660967.19207  22338469.544 6 116322273.10206
C25                                  21869114.937 7  85819104.42207  21869112.208 6 113878204.71106
R14  20319944.379 6 108316755.37316                                  20319953.165 5  84246378.78715
> 2024 02 23 13 45  8.0000000  0 17
C12                                                                  21356528.402 6 111209050.47306  21356531.124 7  85993901.02807
E21  24967137.859 3                                                  24967136.049 4
C11                                                                  23822714.718 6                  23822719.106 6
R23  19220675.710 6 102817651.79306
G31  20967783.865 7 110186445.97807                  20967784.681 4  85859567.26204  20967785.328 6  85859558.35506
G26  21326612.123 4                                                                  21326616.123 4  87328921.75804  21326616.508 5  83690211.72205
C34                                  22219536.558 7  87194239.32707  22219531.207 7 115702960.15707
G29  20662258.038 7 108580898.71807                  20662257.584 6  84608488.64806  20662258.730 6  84608500.64306
R24  20918903.136 7 111862766.10707                                  20918912.264 6  87004399.81006  20918897.653 6  83874818.37206
S21  38210726.963 6 200798742.49406
C44                                  21935863.070 6  86081038.93306  21935869.154 4
G28  21215701.682 7 111489261.55007                  21215702.140 3  86874752.31503  21215702.939 6  86874740.34206  21215707.065 7  83254991.12707
G18  22288049.453 7 117124536.39707                  22288052.134 3  91265839.99703  22288051.767 6  91265850.96106  22288056.012 7  87463195.32207
E26  24184761.839 5 127091776.11605                                  24184764.561 6  94906209.60506  24184764.127 5  97382021.54005
C24                                  22338946.225 7  87662824.37407  22338943.209 6 116324737.49306
C25                                  21868972.410 7  85818544.81907  21868969.651 7 113877462.14307
R14  20319471.010 6 108314227.91106                                  20319478.300 5  84244413.03005
> 2024 02 23 13 45  9.0000000  0 18
C12                                                                  21356531.749 6 111209068.59506  21356534.572 7  85993914.99207
E21                                                                  24967541.611 4
C11                                                                  23822199.533 7                  23822203.754 7
R23  19220820.575 6 102818427.68006
G31  20967877.700 7 110186937.26507                  20967878.108 4  85859950.09004  20967878.341 6  85859941.03906
G26  21326222.207 5
C34                                  22219205.017 7  87192937.70707  22219199.683 7 115701233.00307
G29  20662558.146 7 108582475.45807                  20662557.659 6  84609717.28006  20662558.831 6  84609729.32406
R24  20918297.615 7 111859528.10707                                  20918306.495 6  87001881.44406  20918292.231 6  83872390.53006
S21  38210774.726 6 200798991.91706
C44                                  21936154.018 7  86082180.08407  21936158.205 5
G28  21216132.950 6 111491528.85306                  21216133.579 3  86876519.04203  21216134.535 6  86876507.03206  21216138.560 8  83256684.29608
G18  22287523.243 7 117121771.75407                  22287525.959 3  91263685.72903  22287525.439 6  91263696.79306  22287529.834 7  87461130.92007
R12  22701154.810 4
E26  24184446.490 4 127090112.86504                                  24184448.144 5  94904967.55905  24184447.563 5  97380747.00205
C24                                  22339419.970 6  87664682.38306  22339417.435 5 116327202.94405
C25                                  21868829.899 7  85817985.33507  21868827.403 6 113876719.70106
R14  20318996.556 6 108311700.05906                                  20319004.168 5  84242446.96905
> 2024 02 23 13 45 10.0000000  0 17
C12                                                                  21356535.112 6 111209086.88206  21356538.072 7  85993929.16607
E21  24967953.913 4                                                  24967950.631 4
C11                                                                  23821684.546 7                  23821688.436 7
R23  19220966.171 6 102819203.92006
G31  20967971.565 7 110187429.07007                  20967971.653 4  85860333.31104  20967971.440 5  85860324.26205
C34                                  22218873.483 7  87191636.51107  22218868.483 7 115699506.36107
G29  20662858.091 7 108584051.96607                  20662857.704 6  84610945.73306  20662858.644 6  84610957.73406
R24  20917692.260 7 111856290.99007                                  20917701.166 6  86999363.57006  20917686.901 6  83869963.31806
S21  38210822.484 6 200799241.74706
C44                                  21936444.926 7  86083321.12807  21936443.778 5
G28  21216564.698 7 111493797.19207                  21216565.225 3  86878286.57503  21216565.643 6  86878274.51306  21216569.946 7  83258378.06907
G18  22286997.164 7 117119007.80407                  22286999.995 3  91261532.00903  22286999.623 6  91261542.94206  22287003.927 7  87459066.87107
E26  24184129.218 5 127088449.76705                                  24184131.318 5  94903725.69705  24184131.421 5  97379472.74405
C24                                  22339893.331 6  87666540.47706  22339890.080 5 116329668.65805
C25                                  21868687.328 7  85817426.02507  21868685.003 6 113875977.56506
R14  20318521.846 6 108309172.15006                                  20318529.816 5  84240480.95105
S36  38187670.126 7 200677565.90317
> 2024 02 23 13 45 11.0000000  0 18
C12                                                                  21356538.372 6 111209105.00306  21356541.563 7  85993943.19007
E21  24968360.728 4
C11                                                                  23821169.164 7                  23821173.584 7
R23  19221111.134 6 102819980.06906
G31  20968065.516 6 110187921.15506                  20968065.272 4  85860716.73504  20968065.818 5  85860707.82705
G26                                                                                                                  21325446.890 5  83685594.92505
C34                                  22218542.030 7  87190335.45907  22218537.025 7 115697779.99207
G29  20663158.070 6 108585627.86406                  20663157.612 6  84612173.70506  20663158.849 6  84612185.69506
R24  20917086.936 7 111853054.20907                                  20917095.998 6  86996846.16206  20917081.492 6  83867536.39706
S21  38210869.469 6 200799491.53406
C44                                  21936735.609 7  86084461.65407
G28  21216996.340 6 111496065.78506                  21216996.880 3  86880054.30903  21216997.257 6  86880042.25606  21217001.884 8  83260072.15308
G18  22286470.927 7 117116243.82307                  22286473.988 3  91259378.25503  22286473.851 6  91259389.27706  22286477.896 7  87457002.85907
E26  24183811.509 4 127086786.78204                                  24183814.923 5  94902483.84005  24183815.158 5  97378198.48905
C24                                  22340366.924 7  87668398.62207  22340363.960 6 116332134.39406
C25                                  21868544.790 7  85816866.61407  21868542.413 7 113875235.21907
R14  20318047.211 7 108306643.80107                                  20318055.176 6  84238514.26106
S36  38187717.698 7 200677817.90307
> 2024 02 23 13 45 12.0000000  0 20
C12                                                                  21356541.656 6 111209122.80406  21356544.918 7  85993956.93107
E21  24968766.131 5                                                  24968766.790 5  97982797.55715
C11                                                                  23820654.102 7                  23820658.733 7
R23  19221256.267 6 102820756.18706
G31  20968159.856 5 110188413.44805                  20968158.853 3  85861100.31903  20968159.564 5  85861091.32505
G25                                                                                                                  22372970.945 5
G26  21325049.868 5                                                                                                  21325055.181 5  83684057.15905
C34                                  22218210.419 7  87189034.29407  22218205.374 7 115696053.31707
G29  20663457.718 7 108587203.17607                  20663457.430 6  84613401.21606  20663458.705 6  84613413.27306
R24  20916481.492 7 111849817.45107                                  20916491.169 6  86994328.64106  20916476.441 6  83865109.46206
S21  38210915.501 6 200799740.71406
C44                                  21937026.237 8  86085601.74008
G28  21217427.773 6 111498334.41006                  21217428.585 3  86881822.06603  21217428.509 6  86881810.09506  21217433.559 7  83261766.29907
G18  22285945.045 6 117113479.54406                  22285947.927 3  91257224.27703  22285947.516 6  91257235.27706  22285951.712 7  87454938.69007
R12  22703447.179 4
E26  24183494.798 5 127085123.16705                                  24183498.506 6  94901241.56006  24183498.163 5  97376923.82605
C24                                  22340840.293 7  87670256.45007  22340837.775 6 116334599.51106
C25                                  21868402.215 7  85816307.12207  21868400.014 7 113874492.74007
R14  20317572.978 7 108304115.32507                                  20317580.378 7  84236547.80007
S36  38187765.764 7 200678069.22607
> 2024 02 23 13 45 13.0000000  0 21
C12                                                                  21356545.461 6 111209140.72606  21356548.414 7  85993970.78007
E21  24969170.424 5
C11                                                                  23820138.784 7                  23820143.731 7
R23  19221401.407 6 102821532.76606
G31  20968253.514 6 110188906.46106                  20968252.631 3  85861484.47203  20968253.472 5  85861475.44905
G25                                                                                                                  22373600.818 5
G26  21324654.505 4                                                                  21324655.442 4                  21324660.632 5  83682513.17005
C34                                  22217878.924 7  87187733.26907  22217873.606 7 115694326.87607
G29  20663757.661 7 108588778.60907                  20663757.266 6  84614628.83106  20663758.415 6  84614640.84006
R24  20915876.450 7 111846580.85307                                  20915886.172 6  86991811.33606  20915871.131 6  83862682.70106
E13  24799583.235 7 130322688.14817                                  24799590.056 7  97318917.75917  24799589.047 7  99857667.84517
S21  38210962.967 6 200799989.51406
C44                                  21937316.749 7  86086741.78807  21937308.999 6
G28  21217859.570 6 111500603.38406                  21217860.280 3  86883590.09703  21217860.230 6  86883578.09406  21217865.218 7  83263460.62407
G18  22285419.222 6 117110715.06606                  22285421.778 3  91255070.13603  22285421.099 5  91255081.16505  22285425.528 6  87452874.29206
R12  22704208.146 4
E26  24183179.123 5 127083459.45905                                  24183181.428 6  94899999.13606  24183181.286 5  97375649.04905
C24                                  22341313.713 7  87672114.05107  22341310.618 6 116337064.54106
C25                                  21868259.856 7  85815747.99007  21868257.803 6 113873750.77206
R14  20317098.427 7 108301587.41007                                  20317106.060 6  84234581.53606
S36  38187813.122 7 200678320.10307
> 2024 02 23 13 45 14.0000000  0 21
C12                                                                  21356549.199 6 111209158.63906  21356551.880 7  85993984.68407
E21  24969571.877 5                                                  24969577.491 6  97985977.68006
C11                                                                  23819623.510 7                  23819628.668 7
R23  19221546.887 6 102822309.80406
G31  20968347.056 6 110189399.91506                  20968346.518 3  85861869.01003  20968347.211 5  85861859.98905
G25                                                                                                                  22374230.972 5  87801291.19015
G26  21324257.760 7                                                                  21324259.422 6
C34                                  22217547.304 7  87186432.07607  22217541.910 7 115692600.30007
G29  20664057.528 7 108590354.13407                  20664057.102 6  84615856.51706  20664058.090 6  84615868.52006
R24  20915271.002 7 111843344.09307                                  20915280.656 6  86989293.82906  20915265.714 6  83860255.77506
E13  24799838.417 6 130324029.44306                                  24799845.189 7  97319919.46207  24799844.435 7  99858695.61207
S21  38211010.630 6 200800237.38606
C44                                  21937607.275 7  86087881.88707  21937599.028 5
G28  21218291.453 6 111502872.39206                  21218291.961 3  86885358.16203  21218292.198 6  86885346.11706  21218296.882 7  83265155.02407
G18  22284892.841 6 117107950.21106                  22284895.620 3  91252915.71003  22284894.695 5  91252926.60905  22284899.294 6  87450809.51006
R12  22704969.864 4
E26  24182862.957 5 127081795.20405                                  24182864.931 6  94898756.50806  24182863.832 5  97374373.93905
C24                                  22341787.240 7  87673971.38607  22341784.055 6 116339529.23906
C25                                  21868117.444 7  85815189.16707  21868115.480 7 113873009.22107
R14  20316624.225 7 108299060.18507                                  20316632.274 6  84232615.95606
S36  38187860.647 7 200678570.03807
> 2024 02 23 13 45 15.0000000  0 21
C12                                                                  21356552.865 6 111209177.50606  21356555.537 7  85993999.23407
C11                                                                  23819107.895 6 124032335.86216  23819112.798 7  95909703.39917
R23  19221692.509 6 102823088.27806
G31  20968440.600 6 110189893.37006                  20968440.395 3  85862253.52703  20968441.003 5  85862244.48605
G25                                                                                  22374867.702 5                  22374860.893 5  87803767.21005
G26                                                                                  21323863.420 6  87317667.28216
C34                                  22217215.758 7  87185130.82007  22217210.288 7 115690873.60607
G29  20664357.471 7 108591930.95707                  20664357.181 6  84617085.21306  20664357.911 6  84617097.17106
R24  20914665.640 7 111840107.29007                                  20914674.706 6  86986776.30306  20914660.406 6  83857828.79606
E13                                                                  24800100.679 5  97320922.96205  24800100.294 5  99859725.28105
S21  38211058.370 6 200800484.98006
R13  19506568.698 5 104163995.41315
C44                                  21937898.101 7  86089023.06007  21937889.623 5 114236400.22215
G28  21218723.288 6 111505141.35806                  21218723.734 3  86887126.17503  21218723.698 6  86887114.18406  21218728.602 7  83266849.41407
G18  22284366.766 6 117105185.90406                  22284369.520 3  91250761.70103  22284369.058 5  91250772.65605  22284373.674 6  87448745.22506
R12  22705732.942 4
E26  24182546.759 5 127080132.22505                                  24182547.797 6  94897514.62406  24182547.212 6  97373099.49506
C24                                  22342260.596 7  87675829.41807  22342258.043 6 116341994.66506
C25                                  21867974.994 7  85814630.23307  21867972.930 7 113872267.60007
R14  20316149.931 7 108296532.84107                                  20316158.625 6  84230650.34406
S36  38187908.687 7 200678819.93807
> 2024 02 23 13 45 16.0000000  0 22
C12                                                                  21356556.610 6 111209196.18406  21356559.072 7  85994013.70107
E21                                                                                                  24970374.263 7 100545353.11617
C11                                                                  23818591.881 7 124029650.48607  23818597.002 7  95907626.87607
R23  19221837.848 6 102823867.27506
G31  20968534.213 6 110190386.35006                  20968534.212 3  85862637.66303  20968534.618 5  85862628.72005
G25  22375483.335 5                                                                  22375495.652 5                  22375491.498 5  87806243.95505
G26                                                                                  21323468.530 6  87316057.23706
C34                                  22216883.964 7  87183828.91607  22216878.660 7 115689146.02007
G29  20664657.555 7 108593508.10807                  20664657.324 6  84618314.16006  20664657.618 6  84618326.14806
R24  20914060.178 7 111836869.35307                                  20914068.550 6  86984258.00206  20914055.096 6  83855401.00406
E13  24800353.506 3 130326726.79703                                  24800356.582 5  97321926.91205  24800355.942 4  99860755.42004
S21  38211107.342 6 200800730.97506
R13  19506917.352 5 104165858.53605
C44                                  21938188.970 7  86090164.56707  21938180.960 6 114237914.96406
G28  21219154.993 6 111507409.49506                  21219155.381 3  86888893.54703  21219155.428 6  86888881.59406  21219160.239 7  83268543.18707
G18  22283840.599 6 117102420.52706                  22283843.171 3  91248606.85703  22283842.973 5  91248617.77005  22283847.407 7  87446680.29607
R12  22706493.221 4
E26  24182230.056 5 127078468.56005                                  24182231.787 6  94896272.16806  24182230.860 6  97371824.80106
C24                                  22342733.655 7  87677686.87107  22342731.042 6 116344459.57206
C25                                  21867832.533 7  85814071.14207  21867830.463 7 113871525.72407
R14  20315675.774 7 108294005.64807                                  20315684.415 6  84228684.66206
S36  38187956.172 7 200679068.48307
> 2024 02 23 13 45 17.0000000  0 23
C12                                                                  21356560.091 6 111209214.50206  21356562.709 7  85994027.86507
E21                                                                                                  24970779.451 7 100546984.77407
C11                                                                  23818075.755 7 124026963.37307  23818080.755 6  95905548.99206
R23  19221982.931 6 102824646.54306
G31  20968627.978 6 110190879.18306                  20968627.949 3  85863021.68603  20968628.115 5  85863012.69405
G25                                                                                  22376122.428 6  91626495.48016  22376121.724 5  87808719.84205
G26  21323071.491 7 112053546.44517                  21323081.897 4  87314457.17714  21323074.985 6  87314447.25006
C34                                  22216551.846 7  87182526.12507  22216546.521 7 115687417.27207
G29  20664957.957 7 108595085.37507                  20664957.480 6  84619543.19006  20664957.672 6  84619555.20706
R24  20913454.613 7 111833629.92307                                  20913463.076 6  86981738.37406  20913449.254 6  83852972.06606
E13                                                                  24800613.161 4  97322931.55804  24800612.035 4  99861786.44004
S21  38211151.083 6 200800974.74906
R13  19507266.591 5 104167721.13405
C44                                  21938479.804 7  86091306.10107  21938472.512 5 114239429.86305
G28  21219586.374 6 111509676.56806                  21219586.762 3  86890660.10203  21219587.191 6  86890648.20906  21219591.810 7  83270236.12707
G18  22283314.211 6 117099653.62206                  22283316.563 3  91246450.83103  22283316.127 6  91246461.82006  22283321.182 7  87444614.09607
R12  22707254.014 5
E26  24181912.443 6 127076803.66806                                  24181915.154 7  94895028.94207  24181914.277 7  97370549.12807
C24                                  22343206.804 7  87679543.39907  22343203.743 6 116346922.93106
S48  76572225.912 6 402389764.01916
C25                                  21867690.061 7  85813512.00807  21867687.921 7 113870783.85607
R14  20315201.910 7 108291479.05807                                  20315210.463 6  84226719.56606
S36  38188002.933 7 200679314.75007
> 2024 02 23 13 45 18.0000000  0 25
C12                                                                  21356563.551 6 111209232.16906  21356566.059 7  85994041.56907
E21                                                                  24971184.977 7  97992338.93307  24971184.356 7 100548615.27407
C11                                                                  23817558.314 6 124024271.82406  23817564.480 7  95903467.80407
R23  19222128.368 6 102825426.84306
G31  20968721.745 7 110191372.09907                  20968721.748 3  85863405.79103  20968721.627 5  85863396.78305
E09                                                                  27276444.326 6 107038619.93916  27276442.448 5 109830928.34315
G25  22376733.979 7
G26  21322678.084 6 112051482.44206                  21322688.589 4  87312848.87504  21322681.601 6  87312838.86806  21322677.421 7  83674800.09507
C34                                  22216219.286 7  87181221.03307  22216213.827 6 115685685.49206
E31  26093304.952 6 137121243.72816                                  26093312.138 7 102395761.57617  26093311.533 7 105066953.06017
G29  20665258.693 7 108596664.26407                  20665257.931 6  84620773.48606  20665258.187 6  84620785.46006
R24  20912847.759 7 111830386.02807                                  20912857.412 6  86979215.30006  20912842.617 6  83850539.81306
E13  24800872.553 3 130329427.98703
S21  38211197.868 6 200801212.79906
R13  19507615.846 5 104169582.45605
C44                                  21938770.922 7  86092448.66307  21938763.357 5 114240945.87905
G28  21220016.943 6 111511940.66906                  21220017.577 3  86892424.32803  21220018.194 6  86892412.32006  21220022.626 7  83271926.81107
G18  22282786.687 7 117096881.83807                  22282789.100 3  91244290.99903  22282789.018 6  91244301.96806  22282793.443 7  87442544.32007
R12  22708014.981 5
E26  24181594.589 6 127075135.44806                                  24181597.756 7  94893783.20207  24181596.888 7  97369270.93807
C24                                  22343679.141 7  87681397.21907  22343675.479 6 116349382.91206
S48  76572273.299 5 402390021.51105
C25                                  21867547.684 7  85812953.70707  21867545.295 7 113870042.88807
R14  20314728.392 7 108288955.95707                                  20314736.854 7  84224757.20407
S36  38188048.427 7 200679555.27007
> 2024 02 23 13 45 19.0000000  0 23
C12                                                                  21356566.866 6 111209249.86006  21356569.408 7  85994055.18107
E21  24971583.848 6 131226633.65116                                  24971589.836 7  97993927.44707  24971589.022 7 100550245.17907
C11                                                                  23817040.586 6 124021578.81806  23817047.963 7  95901385.34107
R23  19222274.774 6 102826207.97806
G31  20968815.693 7 110191865.70207                  20968815.624 3  85863790.41603  20968815.329 6  85863781.38506
E09                                                                  27276695.829 5 107039598.17105  27276690.694 5 109831932.36205
G26  21322287.001 7 112049419.63107                  21322295.495 4  87311241.48104  21322290.014 6  87311231.47206  21322284.339 7  83673259.68207
C34                                  22215886.498 7  87179915.33807  22215880.888 7 115683952.82507
E31  26092897.267 7 137119101.52407                                  26092904.488 7 102394161.93307  26092903.699 6 105065311.68306
G29  20665559.135 6 108598243.79106                  20665558.508 6  84622004.27406  20665558.951 6  84622016.22706
R24  20912240.941 7 111827140.71707                                  20912250.813 6  86976691.21406  20912235.757 6  83848106.45406
S21  38211242.521 6 200801448.71606
R13  19507964.530 5 104171443.55305
C44                                  21939062.064 7  86093591.61907  21939054.942 6 114242462.50806
G28  21220447.769 7 111514203.90307                  21220448.316 3  86894187.88903  21220448.807 6  86894175.90606  21220453.360 7  83273616.89707
G18  22282259.088 7 117094108.38507                  22282261.284 3  91242129.86903  22282261.336 6  91242140.84606  22282265.531 7  87440473.15507
R12  22708777.214 5
E26  24181276.974 7 127073466.05907                                  24181280.218 7  94892536.54007  24181278.978 7  97367991.74007
C24                                  22344151.442 7  87683250.02307  22344147.931 6 116351841.51406
S48  76572321.465 5 402390277.40505
C25                                  21867405.503 7  85812395.98107  21867402.939 7 113869302.85207
R14  20314255.557 6 108286434.74906                                  20314263.659 6  84222796.26206
S36  38188091.912 7 200679793.50607
> 2024 02 23 13 45 20.0000000  0 23
C12                                                                  21356569.558 6 111209267.94806  21356573.015 8  85994069.16908
E21  24971987.869 6 131228761.07806                                  24971994.075 7  97995516.06007  24971993.585 7 100551875.25507
C11                                                                  23816522.945 6 124018885.79906  23816530.002 6  95899302.94206
R23  19222420.551 6 102826989.89306
G31  20968909.760 7 110192359.67407                  20968909.508 3  85864175.30803  20968909.460 6  85864166.29206
E09                                                                                                  27276939.357 5 109832936.35205
G26  21321894.830 7 112047356.87807                  21321902.497 4  87309634.14104  21321897.867 6  87309624.13906  21321892.552 7  83671719.32207
C34                                  22215553.980 7  87178609.74407  22215548.167 7 115682220.40107
E31  26092490.127 7 137116959.11007                                  26092497.064 7 102392562.08007  26092495.124 6 105063670.11206
G29  20665859.174 6 108599823.69006                  20665859.175 6  84623235.35706  20665859.743 6  84623247.35506
R24  20911634.208 7 111823895.71907                                  20911643.663 6  86974167.33406  20911629.044 7  83845673.37407
S21  38211285.009 6 200801684.42206
R13  19508313.203 5 104173305.20405
C44                                  21939353.481 7  86094734.90507  21939346.715 6 114243979.59006
G28  21220878.493 7 111516467.56607                  21220879.094 3  86895951.77403  21220879.556 6  86895939.72806  21220884.052 7  83275307.25407
G18  22281731.107 6 117091335.17606                  22281733.495 3  91239968.92103  22281733.765 6  91239979.90306  22281737.492 7  87438402.24607
R12  22709537.578 5
E26  24180959.399 7 127071796.95407                                  24180963.085 7  94891290.16507  24180961.581 7  97366712.83907
C24                                  22344623.851 8  87685103.07708  22344620.429 6 116354300.43706
S48  76572364.012 5 402390532.90705
C25                                  21867263.253 7  85811838.46007  21867260.816 7 113868563.06007
R14  20313782.400 6 108283913.74106                                  20313790.246 6  84220835.51806
S36  38188137.570 7 200680031.59107
> 2024 02 23 13 45 21.0000000  0 24
C12                                                                  21356572.825 6 111209286.26506  21356576.610 7  85994083.37607
E21  24972392.508 6 131230888.59706                                  24972398.529 7  97997104.75607  24972398.327 7 100553505.42707
C11                                                                  23816005.449 6 124016192.62006  23816012.539 6  95897220.48206
R23  19222566.841 6 102827772.40206
G31  20969003.861 7 110192853.86407                  20969003.417 3  85864560.38603  20969003.475 6  85864551.41306
E09                                                                                                  27277188.404 5 109833940.31605
G26  21321501.531 7 112045294.08107                  21321509.602 4  87308026.77004  21321505.142 6  87308016.75206  21321500.855 8  83670178.90308
C34                                  22215221.301 7  87177304.21007  22215215.513 7 115680488.01707
E31  26092082.623 7 137114816.34007                                  26092089.341 7 102390961.93407  26092086.999 6 105062028.22406
G29  20666160.164 6 108601403.87706                  20666159.891 6  84624466.67406  20666160.555 6  84624478.65806
R24  20911027.508 7 111820650.93807                                  20911036.485 6  86971643.62606  20911022.233 6  83843240.45606
S21  38211330.329 6 200801919.88806
R13  19508661.544 5 104175167.34105
C44                                  21939644.864 7  86095878.38907  21939637.950 6 114245496.90506
G28  21221308.988 7 111518731.43507                  21221309.913 4  86897715.82704  21221310.730 6  86897703.79306  21221314.897 7  83276997.80807
G18  22281203.346 7 117088562.12407                  22281205.740 3  91237808.10503  22281206.256 6  91237819.07606  22281209.847 7  87436331.51207
R12  22710298.330 5 121314340.11415
E26  24180641.822 7 127070128.09207                                  24180645.579 7  94890043.92507  24180644.017 7  97365434.10807
C24                                  22345096.177 8  87686956.25908  22345093.028 6 116356759.54006
S48  76572408.653 5 402390787.98405
C25                                  21867121.165 7  85811281.00807  21867119.013 7 113867823.31607
S23  38485965.233 5 202245135.38515
R14  20313309.331 7 108281392.73407                                  20313316.834 6  84218874.69106
S36  38188182.715 7 200680269.52607
> 2024 02 23 13 45 22.0000000  0 26
C12                                                                  21356576.512 6 111209304.60506  21356579.905 7  85994097.53307
E21  24972797.220 6 131233016.04106                                  24972803.141 6  97998693.48906  24972803.032 6 100555135.52106
C11                                                                  23815487.660 6 124013499.15506  23815495.502 7  95895137.78107
R23  19222713.041 6 102828555.19006
G16  23842239.210 7 125291763.64817
G31  20969097.769 7 110193347.97007                  20969097.352 3  85864945.40903  20969097.405 6  85864936.45306
E09  27277447.810 4 143343886.27214                                  27277437.639 6 107042533.19006  27277437.095 5 109834943.73605
G26  21321108.706 6 112043230.60606                  21321116.584 4  87306418.86404  21321112.461 6  87306408.86106  21321108.741 8  83668637.99408
C34                                  22214888.638 7  87175998.58207  22214883.222 7 115678755.43507
E31  26091674.209 6 137112672.58106                                  26091681.273 7 102389361.08907  26091679.241 7 105060385.56207
G29  20666460.434 6 108602983.95706                  20666460.594 6  84625697.90206  20666461.043 6  84625709.91506
R24  20910420.775 7 111817406.11507                                  20910429.023 6  86969119.89306  20910415.508 6  83840807.49206
E13  24801902.718 4                                                  24801899.282 3
S21  38211375.120 6 200802154.86206
R13  19509010.266 5 104177029.83805
C44                                  21939936.184 7  86097021.81907  21939928.796 5 114247014.37505
G28  21221739.738 6 111520995.17606                  21221740.715 4  86899479.78204  21221741.593 6  86899467.86406  21221745.714 7  83278688.33407
G18  22280675.526 7 117085789.06407                  22280678.025 3  91235647.27903  22280678.636 6  91235658.37206  22280682.133 7  87434260.77207
R12  22711061.256 5 121318405.26005
E26  24180324.195 6 127068459.36506                                  24180328.107 7  94888797.80507  24180326.434 7  97364155.44807
C24                                  22345568.433 7  87688809.49807  22345565.330 6 116359218.71206
S48  76572454.434 5 402391042.44805
C25                                  21866979.029 7  85810723.29907  21866976.764 7 113867083.24107
S23  38486015.386 5 202245376.63505
R14  20312836.030 7 108278871.31707                                  20312844.011 7  84216913.58107
S36  38188228.484 7 200680507.05007
> 2024 02 23 13 45 23.0000000  0 26
C12                                                                  21356579.946 6 111209322.64806  21356583.349 7  85994111.51407
E21  24973201.820 6 131235142.17206                                  24973207.529 7  98000281.15907  24973207.608 7 100556764.64907
C11                                                                  23814970.750 6 124010805.78606  23814978.808 6  95893055.06306
R23  19222859.350 6 102829338.00806
G16  23841635.634 7 125288601.14207
G31  20969191.912 7 110193842.91407                  20969191.557 3  85865331.08803  20969191.633 5  85865322.09505
E09  27277697.411 5 143345195.65505                                  27277689.027 5 107043511.95605  27277686.745 5 109835948.15805
G25  22379865.590 7 117607092.08517                  22379880.367 5  91641873.30015
G26  21320715.523 7 112041167.81907                  21320723.678 4  87304811.49604  21320719.728 6  87304801.50506  21320716.719 8  83667097.62308
C34                                  22214555.812 7  87174692.94907  22214550.900 6 115677023.01006
E31  26091265.876 7 137110529.46507                                  26091273.414 7 102387760.69607  26091271.687 7 105058743.47507
G29  20666760.758 6 108604563.53706                  20666761.187 6  84626928.73606  20666761.805 6  84626940.72606
R24  20909814.173 7 111814161.44407                                  20909821.917 6  86966596.27106  20909808.444 6  83838374.60806
E13  24802157.252 4                                                  24802156.481 3
S21  38211421.997 6 200802389.16606
R13  19509358.756 5 104178891.72505
C44                                  21940227.510 7  86098164.77607  21940219.241 5 114248530.86205
G28  21222170.664 6 111523259.35306                  21222171.609 3  86901244.08103  21222172.575 6  86901232.04206  21222176.549 7  83280379.03707
G18  22280148.058 7 117083015.56507                  22280150.264 3  91233486.13703  22280150.669 6  91233497.09806  22280154.796 7  87432189.58307
R12  22711823.414 5 121322469.13405
E26  24180006.566 7 127066789.83307                                  24180010.311 7  94887551.05607  24180008.723 7  97362876.17607
C24                                  22346040.487 7  87690662.14607  22346037.644 6 116361677.11406
S48  76572499.988 5 402391296.88005
C25                                  21866837.240 7  85810165.91507  21866834.647 7 113866343.65007
R14  20312363.244 7 108276350.44307                                  20312371.623 6  84214952.95206
S36  38188275.396 7 200680743.88107
> 2024 02 23 13 45 24.0000000  0 26
C12                                                                  21356583.253 6 111209341.18406  21356587.065 7  85994125.83807
E21  24973606.241 6 131237268.85806                                  24973612.317 7  98001869.26807  24973612.346 7 100558394.19407
C11                                                                  23814453.506 6 124008112.17506  23814461.289 6  95890972.15906
R23  19223006.345 6 102830121.67206
G16  23841034.426 7 125285439.18907
G31  20969286.125 7 110194337.91107                  20969285.682 3  85865716.79603  20969286.092 5  85865707.80005
E09  27277947.876 6 143346506.09806                                  27277939.525 5 107044490.47605  27277934.860 5 109836952.08105
G25  22380494.691 7 117610401.27207                  22380509.506 6  91644451.88806                                  22380500.903 7  87826019.97307
G26  21320322.402 7 112039104.75107                  21320330.710 4  87303203.91704  21320326.919 6  87303193.89206  21320324.770 8  83665557.00508
C34                                  22214223.152 7  87173387.35507  22214217.887 6 115675290.54006
E31  26090858.400 7 137108385.67107                                  26090865.515 7 102386159.81907  26090863.673 6 105057100.80906
G29  20667061.481 6 108606143.61006                  20667061.889 6  84628159.96406  20667062.675 6  84628171.98206
R24  20909207.335 7 111810916.83907                                  20909215.741 6  86964072.70406  20909201.620 6  83835941.82906
E13  24802413.878 4                                                  24802410.701 3
S21  38211467.420 6 200802623.20606
R13  19509707.743 5 104180754.52905
C44                                  21940518.860 7  86099308.18807  21940510.871 6 114250048.17806
G28  21222601.333 6 111525523.59806                  21222602.488 3  86903008.42103  21222603.462 6  86902996.39906  21222607.473 7  83282069.87507
G18  22279620.478 7 117080242.32607                  22279622.446 3  91231325.15703  22279622.488 6  91231336.10606  22279627.013 7  87430118.68107
R12  22712583.628 5 121326533.63305
E26  24179689.178 7 127065120.78807                                  24179692.794 7  94886304.71207  24179691.075 7  97361597.33207
C24                                  22346512.727 7  87692515.14407  22346509.623 6 116364135.97606
S48  76572544.658 5 402391550.72005
C25                                  21866695.192 7  85809608.54507  21866692.806 7 113865604.05907
R14  20311890.627 7 108273829.47707                                  20311898.443 6  84212992.16506
S36  38188316.819 7 200680980.46407
> 2024 02 23 13 45 25.0000000  0 26
C12                                                                  21356586.423 6 111209360.03706  21356590.799 7  85994140.40407
E21  24974010.782 6 131239395.50906                                  24974017.216 7  98003457.33007  24974016.996 7 100560023.68907
C11                                                                  23813936.194 6 124005418.79606  23813943.856 6  95888889.50806
R23  19223153.347 6 102830905.93606
G16  23840433.304 6 125282276.99806
G31  20969380.742 7 110194833.52607                  20969379.892 3  85866102.99503  20969380.865 5  85866094.03405
E09  27278198.168 6 143347816.72306                                  27278189.519 5 107045469.26605  27278183.197 5 109837956.52005
G25  22381123.908 7 117613710.44607                  22381138.679 6  91647030.46106  22381132.472 6  91647126.43706  22381129.742 7  87828491.09307
G26  21319929.772 7 112037041.89107                  21319937.814 4  87301596.49404  21319934.291 6  87301586.50506  21319932.842 8  83664016.57508
C34                                  22213890.533 7  87172082.00007  22213885.027 6 115673558.39506
E31  26090450.965 7 137106241.86207                                  26090457.564 7 102384558.94107  26090455.610 6 105055458.19606
G29  20667362.067 6 108607723.93606                  20667362.646 6  84629391.38406  20667363.427 6  84629403.40306
R24  20908600.340 7 111807672.65107                                  20908609.489 6  86961549.43806  20908594.931 6  83833509.33106
E13  24802670.587 5                                                  24802665.308 3
S21  38211512.047 6 200802857.16306
R13  19510056.175 5 104182617.78405
C44                                  21940810.204 7  86100451.73807  21940803.110 6 114251565.57406
G28  21223032.427 7 111527788.35407                  21223033.424 4  86904773.15504  21223034.393 6  86904761.14206  21223038.465 7  83283761.08707
G18  22279092.848 6 117077469.30606                  22279094.696 3  91229164.35003  22279094.293 6  91229175.34506  22279099.259 7  87428047.91807
R12  22713343.344 5 121330598.20905
E26  24179371.737 7 127063451.99007                                  24179375.331 7  94885058.52607  24179373.524 7  97360318.63807
C24                                  22346984.943 7  87694368.28707  22346981.905 6 116366595.00106
S48  76572592.736 5 402391804.47805
C25                                  21866553.196 7  85809051.47007  21866551.106 7 113864864.84007
R14  20311417.733 7 108271308.83107                                  20311425.356 6  84211031.68706
S36  38188358.920 7 200681216.86107
> 2024 02 23 13 45 26.0000000  0 25
C12                                                                  21356589.820 6 111209379.23106  21356594.583 7  85994155.24407
E21  24974415.318 6 131241522.26506                                  24974421.953 7  98005045.48007  24974421.647 7 100561653.28207
C11                                                                  23813419.154 6 124002725.43306  23813426.449 6  95886806.80006
R23  19223300.157 6 102831690.90906
G31  20969475.471 7 110195329.60907                  20969474.180 3  85866489.55003  20969475.198 5  85866480.56305
E09  27278448.447 6 143349127.66006                                  27278436.397 5 107046448.22905  27278432.284 5 109838961.02405
G25  22381753.424 7 117617019.75007                  22381767.921 6  91649609.13706  22381761.664 6  91649705.11906  22381759.098 7  87830962.32607
G26  21319537.222 7 112034979.18607                  21319545.049 4  87299989.19104  21319542.166 6  87299979.20406  21319540.932 8  83662476.24808
C34                                  22213558.025 7  87170776.81307  22213552.386 7 115671826.43307
E31  26090043.429 7 137104097.92807                                  26090049.712 7 102382957.95707  26090047.468 6 105053815.44006
G29  20667663.199 6 108609304.58106                  20667663.470 6  84630623.06006  20667664.013 6  84630635.07006
R24  20907993.606 7 111804428.80207                                  20908003.144 6  86959026.43906  20907988.362 6  83831077.09206
E13  24802928.009 5                                                  24802922.368 3
S21  38211555.015 6 200803090.92106
R13  19510405.239 5 104184481.55905
C44                                  21941101.693 7  86101595.52407  21941094.684 6 114253083.34206
G28  21223463.675 7 111530053.47407                  21223464.439 3  86906538.17303  21223465.376 6  86906526.17506  21223469.512 7  83285452.56407
G18  22278564.883 6 117074696.53706                  22278567.027 3  91227003.74503  22278566.390 6  91227014.74206  22278571.432 7  87425977.34507
R12  22714103.509 5 121334662.86605
E26  24179054.379 7 127061783.44307                                  24179057.962 7  94883812.54007  24179056.127 7  97359040.14507
C24                                  22347457.246 7  87696221.60507  22347454.265 6 116369054.25806
S48  76572638.221 5 402392058.13605
C25                                  21866411.204 7  85808494.57207  21866409.265 7 113864125.86107
R14  20310944.917 7 108268788.44507                                  20310952.554 6  84209071.40606
S36  38188402.218 7 200681453.04307
> 2024 02 23 13 45 27.0000000  0 26
C12                                                                  21356593.243 6 111209398.83306  21356598.465 7  85994170.41407
E21  24974819.841 6 131243649.24306                                  24974826.633 7  98006633.80607  24974826.429 7 100563283.03507
C11                                                                  23812902.075 6 124000032.14406  23812908.597 6  95884724.17406
R23  19223447.263 6 102832476.64006
G16  23839235.853 7 125275952.92007
G31  20969570.058 7 110195826.15807                  20969568.554 3  85866876.47203  20969569.522 5  85866867.47705
E09  27278698.671 6 143350438.96906                                  27278685.551 5 107047427.32505  27278681.349 4 109839965.54804
G25  22382383.092 7 117620329.32907                  22382397.253 6  91652188.02406  22382391.290 6  91652284.01406  22382388.753 7  87833433.78207
G26  21319144.841 7 112032916.55007                  21319152.293 4  87298381.95004  21319149.725 6  87298371.94106  21319148.859 8  83660935.96708
C34                                  22213225.564 7  87169471.81007  22213219.831 6 115670094.75606
E31  26089635.741 7 137101953.80907                                  26089641.862 7 102381356.79607  26089639.215 6 105052172.48706
G29  20667963.872 6 108610885.59706                  20667964.357 6  84631855.02506  20667964.858 6  84631867.00706
R24  20907387.073 7 111801185.36507                                  20907396.892 6  86956503.78206  20907381.793 6  83828645.16906
E13  24803184.868 4                                                  24803177.684 3
S21  38211596.739 6 200803324.53906
R13  19510753.854 5 104186345.95805
C44                                  21941393.264 7  86102739.59107  21941386.333 5 114254601.45005
G28  21223894.857 7 111532319.00107                  21223895.584 4  86908303.51304  21223896.558 6  86908291.49806  21223900.633 7  83287144.36307
G18  22278036.911 7 117071924.11707                  22278039.438 3  91224843.42003  22278039.109 5  91224854.42605  22278043.676 7  87423907.05607
R12  22714864.171 5 121338727.86405
E26  24178737.003 7 127060115.26307                                  24178740.655 7  94882566.83407  24178738.830 7  97357761.95307
C24                                  22347929.644 7  87698075.17707  22347927.146 6 116371513.93106
S48  76572684.601 5 402392311.54605
C25                                  21866269.325 7  85807937.86507  21866267.618 7 113863387.11107
R14  20310472.417 7 108266268.22607                                  20310480.273 6  84207111.22806
S36  38188446.872 7 200681689.16607
> 2024 02 23 13 45 28.0000000  0 26
C12                                                                  21356596.678 6 111209418.25106  21356602.167 7  85994185.42407
E21  24975224.542 6 131245775.56106                                  24975231.503 7  98008221.64907  24975231.099 7 100564912.29307
C11                                                                  23812384.955 6 123997338.57006  23812390.959 6  95882641.34906
R23  19223594.095 6 102833262.48106
G16  23838633.685 6 125272790.16806
G31  20969664.646 7 110196322.87207                  20969662.941 3  85867263.52203  20969664.068 6  85867254.52706
E09  27278948.866 6 143351749.97906                                  27278937.679 5 107048406.37305  27278931.045 4 109840970.22904
G25  22383012.985 7 117623638.28707                  22383026.508 6  91654766.42606  22383020.870 6  91654862.39306  22383018.441 7  87835904.72307
G26  21318752.259 7 112030853.75707                  21318759.554 4  87296774.58404  21318756.780 6  87296764.58106  21318756.418 8  83659395.57708
C34                                  22212893.001 7  87168166.64807  22212887.289 7 115668362.86307
E31  26089227.690 7 137099809.27707                                  26089233.799 7 102379755.39107  26089231.069 6 105050529.33906
G29  20668264.626 6 108612466.27506                  20668265.185 6  84633086.72006  20668265.592 6  84633098.73006
R24  20906780.472 7 111797941.78807                                  20906790.624 6  86953980.99606  20906775.236 6  83826213.13206
E13  24803440.775 4                                                  24803434.905 3
S21  38211641.813 6 200803557.51406
R13  19511102.224 5 104188210.16805
C44                                  21941684.655 7  86103883.40907  21941678.035 5 114256119.27005
G28  21224325.870 7 111534584.49807                  21224326.747 4  86910068.83304  21224327.687 6  86910056.81806  21224331.787 7  83288836.12207
G18  22277509.193 7 117069151.32707                  22277511.755 3  91222682.80203  22277511.906 6  91222693.81806  22277515.964 7  87421836.44907
R12  22715626.278 4 121342792.24604
E26  24178419.473 7 127058446.71407                                  24178423.097 7  94881320.84407  24178421.228 7  97356483.44807
C24                                  22348401.865 7  87699928.45107  22348399.693 6 116373973.09806
S48  76572729.505 5 402392564.37405
C25                                  21866127.381 7  85807381.10507  21866125.874 7 113862648.32507
R14  20309999.790 7 108263748.00807                                  20310007.471 6  84205151.07406
S36  38188493.390 7 200681924.56407
> 2024 02 23 13 45 29.0000000  0 26
C12                                                                  21356600.030 6 111209437.60506  21356605.874 7  85994200.38307
E21  24975629.111 6 131247901.58106                                  24975636.155 7  98009809.26007  24975635.652 7 100566541.32207
C11                                                                  23811867.798 6 123994644.64606  23811873.551 6  95880558.23006
R23  19223741.197 6 102834048.59406
G16  23838031.733 6 125269627.04206
G31  20969759.076 7 110196819.59007                  20969757.400 3  85867650.56903  20969758.486 6  85867641.58906
E09  27279198.721 6 143353060.84506                                  27279188.788 5 107049385.22905  27279180.020 4 109841974.62804
G25  22383642.655 7 117626946.96907                  22383655.719 6  91657344.61006  22383650.219 6  91657440.60106  22383648.259 7  87838375.49107
G26  21318359.671 7 112028790.63207                  21318366.704 4  87295166.95704  21318364.107 6  87295156.95706  21318363.907 8  83657854.93808
C34                                  22212560.392 7  87166861.34607  22212554.543 7 115666630.78407
E31  26088819.604 7 137097664.15507                                  26088825.594 7 102378153.50607  26088822.775 6 105048885.65506
G29  20668565.545 6 108614046.85306                  20668565.995 6  84634318.33506  20668566.374 6  84634330.33006
R24  20906173.950 7 111794698.10007                                  20906184.053 6  86951458.14406  20906168.610 6  83823781.01606
E13  24803698.340 5                                                  24803691.402 3
S21  38211686.431 6 200803789.91606
R13  19511451.776 5 104190074.52205
C44                                  21941976.091 7  86105027.12707  21941969.174 6 114257636.93706
G28  21224757.188 7 111536849.95807                  21224757.874 4  86911834.12704  21224758.653 6  86911822.12006  21224762.918 7  83290527.86407
G18  22276981.368 7 117066378.39207                  22276984.001 3  91220522.08503  22276984.635 6  91220533.10106  22276988.300 7  87419765.75307
R12  22716386.467 5 121346856.34505
E26  24178101.866 7 127056778.04907                                  24178105.563 7  94880074.76007  24178103.708 7  97355204.86507
C24                                  22348874.097 7  87701781.60707  22348872.338 6 116376432.16906
S48  76572770.045 5 402392816.61305
C25                                  21865985.434 7  85806824.21307  21865984.012 7 113861909.35807
R14  20309527.167 7 108261227.50807                                  20309534.809 6  84203190.68506
S36  38188538.429 7 200682159.44307
> 2024 02 23 13 45 30.0000000  0 26
C12                                                                  21356603.707 6 111209457.26406  21356609.597 7  85994215.58507
E21  24976033.691 6 131250027.64506                                  24976040.861 7  98011396.88507  24976040.190 7 100568170.37007
C11                                                                  23811350.331 6 123991950.74606  23811356.095 6  95878475.13106
R23  19223888.061 6 102834835.37606
G16  23837428.925 6 125266463.81406
G31  20969853.631 7 110197316.78507                  20969851.974 3  85868037.99403  20969853.127 5  85868029.00505
E09  27279448.483 6 143354372.01606                                  27279440.571 5 107050364.29905  27279429.116 4 109842979.20204
G25  22384272.475 7 117630255.71107                  22384284.962 6  91659922.84906  22384279.688 6  91660018.84706  22384278.158 7  87840846.31007
G26  21317967.260 7 112026727.65907                  21317973.855 4  87293559.44804  21317971.639 6  87293549.46406  21317971.384 8  83656314.41708
C34                                  22212227.850 7  87165556.17007  22212222.089 7 115664898.84707
E31  26088411.508 7 137095518.93007                                  26088417.304 7 102376551.55107  26088414.311 6 105047241.90106
G29  20668866.428 6 108615627.71606                  20668866.855 6  84635550.17706  20668867.076 6  84635562.17206
R24  20905567.428 7 111791454.65007                                  20905577.189 6  86948935.47806  20905562.176 6  83821349.08806
E13  24803955.235 4                                                  24803948.636 3
S21  38211729.958 6 200804022.08206
R13  19511801.585 5 104191939.37005
C44                                  21942267.621 7  86106171.05707  21942260.898 5 114259154.88805
G28  21225188.493 7 111539115.75607                  21225189.063 4  86913599.68004  21225189.883 6  86913587.67506  21225194.092 8  83292219.85208
G18  22276453.926 7 117063605.59907                  22276456.273 3  91218361.46703  22276457.027 6  91218372.48606  22276460.637 7  87417695.18707
R12  22717147.445 4 121350920.52904
E26  24177784.388 7 127055109.57007                                  24177788.077 7  94878828.82507  24177786.200 7  97353926.42407
C24                                  22349346.364 7  87703634.88507  22349344.848 6 116378891.37406
S48  76572813.862 5 402393068.70205
C25                                  21865843.567 7  85806267.54107  21865842.013 7 113861170.65707
R14  20309054.850 7 108258707.26907                                  20309061.461 6  84201230.51706
S36  38188582.939 7 200682394.00307
> 2024 02 23 13 45 31.0000000  0 26
C12                                                                  21356607.932 6 111209477.54406  21356613.440 7  85994231.26707
E21  24976438.373 6 131252153.98506                                  24976445.642 7  98012984.74307  24976444.851 7 100569799.63907
C11                                                                  23810833.167 6 123989257.34306  23810838.985 6  95876392.45106
R23  19224035.271 6 102835623.09106
G16  23836825.775 7 125263300.78507
G31  20969948.622 7 110197814.84807                  20969946.715 3  85868426.09003  20969947.893 5  85868417.11205
E09  27279698.150 6 143355683.67706                                                                  27279678.816 4 109843984.30804
G25  22384902.194 7 117633564.78007                  22384914.275 6  91662501.34106  22384909.542 6  91662597.33706  22384908.086 7  87843317.36307
G26  21317574.920 7 112024665.16407                  21317581.085 4  87291952.31404  21317578.980 6  87291942.31306  21317578.857 8  83654774.23908
C34                                  22211895.356 7  87164251.46607  22211889.692 6 115663167.57906
E31  26088003.375 7 137093373.89807                                  26088009.087 7 102374949.75707  26088006.132 6 105045598.32506
G29  20669167.402 6 108617209.05306                  20669167.809 6  84636782.39006  20669168.021 6  84636794.39106
R24  20904961.057 7 111788211.96607                                  20904970.544 6  86946413.38706  20904955.763 6  83818917.73006
E13  24804211.436 4                                                  24804205.974 3
S21  38211775.949 6 200804254.45406
R13  19512152.403 5 104193805.01105
C44                                  21942559.252 7  86107315.35007  21942552.413 5 114260673.32705
G28  21225619.710 7 111541382.35207                  21225620.405 4  86915365.85504  21225621.369 6  86915353.85606  21225625.409 7  83293912.43707
G18  22275926.771 7 117060833.41607                  22275928.729 3  91216201.32003  22275929.288 5  91216212.36205  22275933.207 7  87415625.03607
R12  22717910.780 5 121354985.09905
E26  24177466.884 7 127053441.66907                                  24177470.623 7  94877583.31707  24177468.816 7  97352648.41607
C24                                  22349818.657 7  87705488.56807  22349817.443 6 116381351.16506
S48  76572854.518 5 402393320.94405
C25                                  21865701.848 7  85805711.30107  21865700.159 7 113860432.55807
R14  20308582.312 7 108256187.57207                                  20308588.939 6  84199270.75006
S36  38188627.968 7 200682628.79007
> 2024 02 23 13 45 32.0000000  0 26
C12                                                                  21356612.199 6 111209498.20606  21356617.404 7  85994247.25907
E21  24976842.976 6 131254280.43506                                  24976850.355 7  98014572.68107  24976849.520 7 100571429.00207
C11                                                                  23810315.813 6 123986564.06106  23810321.915 6  95874309.83806
R23  19224182.831 6 102836411.52606
G16  23836222.299 7 125260137.76107
G31  20970043.496 7 110198313.43707                  20970041.526 3  85868814.59903  20970042.815 5  85868805.61405
E09  27279947.889 6 143356995.69006                                                                  27279928.683 4 109844989.57904
G25  22385531.979 7 117636874.01107                  22385543.638 6  91665079.96106  22385539.232 6  91665175.96306  22385538.058 7  87845788.53307
G26  21317182.654 7 112022602.86107                  21317188.401 4  87290345.32404  21317186.336 6  87290335.33806  21317186.332 8  83653234.21708
C34                                  22211562.940 7  87162946.95507  22211557.139 6 115661436.52906
E31  26087595.164 7 137091228.83207                                  26087600.879 7 102373347.92107  26087597.966 6 105043954.69006
G29  20669468.360 6 108618790.74806                  20669468.821 6  84638014.88106  20669468.992 6  84638026.87306
R24  20904354.763 7 111784969.68407                                  20904364.623 6  86943891.62106  20904349.393 6  83816486.66006
E13  24804468.014 4                                                  24804463.132 3
S21  38211820.262 6 200804486.65006
R13  19512502.264 5 104195671.22605
C44                                  21942850.917 7  86108459.88907  21942844.512 5 114262192.07205
G28  21226051.128 7 111543649.35307                  21226051.827 4  86917132.35104  21226052.726 6  86917120.34706  21226056.818 8  83295605.32508
G18  22275399.442 7 117058061.48107                  22275401.154 3  91214041.37803  22275401.662 5  91214052.40705  22275405.844 7  87413555.08907
R12  22718671.848 5 121359049.89805
E26  24177149.421 7 127051774.03907                                  24177153.219 7  94876338.02107  24177151.491 7  97351370.63207
C24                                  22350290.941 7  87707342.43307  22350289.780 6 116383811.16906
S48  76572901.667 5 402393573.10705
C25                                  21865560.167 7  85805155.32007  21865558.492 7 113859694.79307
R14  20308109.704 7 108253668.20107                                  20308116.522 6  84197311.22506
S36  38188672.488 7 200682863.42107
> 2024 02 23 13 45 33.0000000  0 26
C12                                                                  21356616.314 6 111209519.07306  21356621.382 7  85994263.38407
E21  24977247.421 6 131256406.76506                                  24977255.029 7  98016160.51007  24977254.125 7 100573058.25607
C11                                                                  23809798.777 6 123983870.70206  23809804.627 6  95872227.18706
R23  19224330.164 6 102837200.47506
G16  23835618.797 6 125256974.50906
G31  20970138.551 7 110198812.39707                  20970136.392 3  85869203.41003  20970137.730 5  85869194.43605
E09  27280197.429 6 143358307.78606                                                                  27280178.189 4 109845994.96904
G25  22386161.583 7 117640183.10707                  22386172.992 6  91667658.47606  22386168.934 6  91667754.47406  22386168.001 7  87848259.60907
G26  21316790.439 7 112020540.59107                  21316795.752 4  87288738.36404  21316793.820 6  87288728.36806  21316793.842 8  83651694.21708
C34                                  22211230.535 7  87161642.50507  22211224.579 6 115659705.58206
E31  26087186.867 7 137089083.53807                                  26087192.664 7 102371745.92007  26087189.797 6 105042310.90906
G29  20669769.576 6 108620372.54006                  20669769.859 6  84639247.44406  20669770.114 6  84639259.45206
R24  20903748.492 7 111781727.59207                                  20903758.185 6  86941369.99006  20903743.029 6  83814055.74806
E13  24804725.396 5                                                  24804720.394 3
S21  38211863.619 6 200804718.53806
R13  19512851.528 5 104197537.72905
C44                                  21943142.625 7  86109604.50407  21943135.604 5 114263710.93105
G28  21226482.786 7 111545916.61207                  21226483.321 4  86918899.03904  21226484.220 6  86918887.04306  21226488.277 8  83297298.40408
G18  22274871.988 6 117055289.57606                  22274873.601 3  91211881.45703  22274873.962 5  91211892.50005  22274878.405 7  87411485.17407
R12  22719433.519 5 121363114.55005
E26  24176832.034 7 127050106.49107                                  24176835.857 7  94875092.76407  24176834.186 7  97350092.89807
C24                                  22350763.327 7  87709196.33807  22350762.196 6 116386271.20506
S48  76572946.271 5 402393824.97205
C25                                  21865418.539 7  85804599.46107  21865416.740 7 113858957.19407
R14  20307637.068 7 108251149.01207                                  20307644.192 6  84195351.88606
S36  38188715.916 7 200683097.68707
> 2024 02 23 13 45 34.0000000  0 26
C12                                                                  21356620.774 6 111209539.91206  21356625.452 7  85994279.49607
E21  24977652.096 6 131258532.77506                                  24977659.501 7  98017748.11407  24977658.667 7 100574687.27807
C11                                                                  23809281.658 6 123981177.10406  23809287.375 6  95870144.31906
R23  19224477.517 6 102837989.73106
G16  23835015.722 6 125253810.86406
G31  20970233.290 7 110199311.46307                  20970231.289 3  85869592.29003  20970232.455 5  85869583.31205
E09  27280446.847 6 143359619.77306                                                                  27280427.440 4 109847000.23904
G25  22386791.240 7 117643491.94607                  22386802.315 6  91670236.79206  22386798.852 6  91670332.79906  22386797.862 7  87850730.50907
G26  21316398.073 7 112018478.08807                  21316403.108 4  87287131.21704  21316401.454 6  87287121.21906  21316401.344 8  83650154.03108
C34                                  22210898.055 7  87160337.95607  22210892.208 6 115657974.51206
E31  26086778.513 7 137086937.75007                                  26086784.425 7 102370143.53407  26086781.538 6 105040666.71406
G29  20670070.840 6 108621954.25606                  20670070.862 6  84640479.95306  20670071.184 6  84640491.94506
R24  20903142.052 7 111778485.47007                                  20903152.002 6  86938848.34006  20903136.708 6  83811624.81006
E13  24804983.404 5                                                  24804977.391 3
S21  38211909.145 6 200804949.86606
R13  19513201.395 5 104199404.35105
C44                                  21943434.311 7  86110749.04107  21943427.019 5 114265229.70105
G28  21226914.130 7 111548183.91607                  21226914.783 4  86920665.76604  21226915.679 6  86920653.75606  21226919.770 8  83298991.51508
G18  22274344.339 7 117052517.60207                  22274346.110 3  91209721.48503  22274346.721 5  91209732.50905  22274350.882 7  87409415.18207
R12  22720194.027 5 121367178.95905
E26  24176514.567 7 127048438.83207                                  24176518.571 7  94873847.43907  24176516.819 7  97348815.07707
C24                                  22351235.681 7  87711050.13607  22351234.704 6 116388731.12006
S48  76572991.748 5 402394076.19905
C25                                  21865276.887 7  85804043.52607  21865275.170 7 113858219.48907
R14  20307164.580 7 108248629.68107                                  20307172.004 6  84193392.38106
S36  38188759.698 7 200683331.46307
> 2024 02 23 13 45 35.0000000  0 26
C12                                                                  21356625.287 6 111209561.26806  21356629.564 7  85994296.02607
E21  24978056.781 6 131260659.09206                                  24978064.157 7  98019335.94007  24978063.336 7 100576316.54507
C11                                                                  23808764.581 6 123978483.68506  23808770.512 6  95868061.59106
R23  19224625.215 6 102838779.90006
G16  23834411.987 7 125250647.32307
G31  20970328.247 7 110199811.17907                  20970326.297 3  85869981.67503  20970327.922 5  85869972.67005
E09  27280696.485 5 143360932.33405                                  27280699.574 6 107055263.18306  27280678.484 5 109848005.79005
G25  22387421.130 7 117646801.12807                  22387431.727 6  91672815.37806  22387428.634 6  91672911.39206  22387427.679 7  87853201.67307
G26  21316005.474 7 112016415.87007                  21316010.562 4  87285524.29804  21316009.442 6  87285514.30006  21316008.872 8  83648614.06208
C34                                  22210565.682 7  87159033.69507  22210559.688 6 115656243.79906
E31  26086370.156 7 137084791.96907                                  26086376.187 7 102368541.15907  26086373.208 6 105039022.53606
G29  20670371.642 6 108623536.47106                  20670371.976 6  84641712.85106  20670372.280 6  84641724.83706
R24  20902535.743 7 111775243.76707                                  20902545.921 6  86936327.03206  20902530.417 6  83809194.18806
E13  24805240.858 4                                                  24805234.434 3
S21  38211953.785 6 200805181.17006
R13  19513551.660 5 104201271.75605
C44                                  21943726.126 7  86111893.96007  21943718.689 5 114266748.99105
G28  21227345.750 7 111550451.72307                  21227346.313 4  86922432.88704  21227346.971 6  86922420.88506  21227351.313 8  83300685.01008
G18  22273816.851 7 117049745.99107                  22273818.700 3  91207561.79103  22273819.280 5  91207572.80805  22273823.439 7  87407345.49207
R12  22720955.543 4 121371243.74704
E26  24176197.284 7 127046771.62807                                  24176201.368 7  94872602.44407  24176199.656 7  97347537.60507
C24                                  22351708.144 7  87712904.23507  22351707.254 6 116391191.47506
S48  76573036.079 5 402394327.36405
C25                                  21865135.366 7  85803487.92007  21865133.594 7 113857482.22007
R14  20306692.319 7 108246110.75007                                  20306698.850 6  84191433.20806
S36  38188805.733 7 200683565.27207
> 2024 02 23 13 45 36.0000000  0 26
C12                                                                  21356629.934 6 111209583.07206  21356633.656 7  85994312.87207
E21  24978461.390 6 131262785.37506                                  24978468.991 7  98020923.77807  24978467.951 7 100577945.77607
C11                                                                  23808247.228 6 123975790.62006  23808253.346 6  95865979.16506
R23  19224772.808 6 102839570.76906
G16  23833808.206 7 125247483.78007
G31  20970423.479 7 110200311.63607                  20970421.462 3  85870371.64403  20970423.428 5  85870362.66005
E09  27280946.469 6 143362245.11806                                  27280949.635 6 107056243.50106  27280930.034 5 109849011.78305
G25  22388050.983 7 117650110.33107                  22388061.153 6  91675393.97906  22388058.266 6  91675489.98606  22388057.563 7  87855672.79307
G26  21315612.991 7 112014354.06207                  21315618.105 4  87283917.69404  21315617.163 6  87283907.70706  21315616.398 8  83647074.40308
C34                                  22210233.371 7  87157729.75007  22210227.404 7 115654513.52507
E31  26085961.301 7 137082646.35907                                  26085967.787 7 102366938.93107  26085965.223 6 105037378.51406
G29  20670672.875 6 108625118.96906                  20670673.149 6  84642945.96406  20670673.123 6  84642957.97606
R24  20901929.788 7 111772002.59307                                  20901939.475 6  86933806.09706  20901924.201 6  83806763.93506
E13  24805498.995 5                                                  24805489.862 3
S21  38211997.884 6 200805412.49306
R13  19513902.078 5 104203139.63905
C44                                  21944017.955 7  86113039.07207  21944010.611 5 114268268.48305
G28  21227777.419 7 111552720.15807                  21227777.972 4  86924200.50404  21227778.804 6  86924188.49706  21227782.975 8  83302378.96708
G18  22273289.628 7 117046974.71907                  22273291.362 3  91205402.36503  22273291.755 6  91205413.38206  22273296.156 7  87405276.03107
R12  22721715.235 5 121375308.47905
E26  24175880.035 7 127045104.69707                                  24175884.091 7  94871357.66307  24175882.470 7  97346260.35707
C24                                  22352180.700 7  87714758.53807  22352179.371 6 116393652.03806
S48  76573081.238 5 402394578.70105
C25                                  21864993.906 7  85802932.69907  21864991.992 7 113856745.47207
R14  20306219.798 7 108243592.32207                                  20306226.120 6  84189474.44406
S36  38188851.447 7 200683799.10907
> 2024 02 23 13 45 37.0000000  0 26
C12                                                                  21356634.699 6 111209605.21706  21356637.841 7  85994330.00907
E21  24978865.913 6 131264911.88606                                  24978873.690 7  98022511.72107  24978872.636 7 100579575.15007
C11                                                                  23807730.063 6 123973097.52306  23807736.548 6  95863896.67206
R23  19224920.910 6 102840362.39206
G16  23833204.159 7 125244320.23807                  23833197.474 2  97592959.09112
G31  20970518.965 7 110200812.54107                  20970516.753 3  85870761.95403  20970518.560 5  85870752.94605
E09  27281196.709 6 143363558.29306                                  27281198.877 6 107057224.09906  27281180.774 5 109850017.94205
G25  22388680.896 7 117653419.73607                  22388690.632 6  91677972.73406  22388687.963 6  91678068.73106  22388687.385 7  87858144.09407
G26  21315220.358 7 112012292.38207                  21315225.649 4  87282311.19504  21315224.835 6  87282301.20106  21315224.006 8  83645534.85808
C34                                  22209901.051 7  87156425.93207  22209894.933 7 115652783.43007
E31  26085552.881 7 137080500.60507                                  26085559.429 7 102365336.57907  26085557.018 6 105035734.36506
G29  20670974.152 6 108626701.86906                  20670974.407 6  84644179.39106  20670974.313 6  84644191.37106
R24  20901323.357 7 111768761.72907                                  20901333.462 6  86931285.43806  20901317.952 6  83804333.92306
E13  24805757.088 4                                                  24805746.958 3
S21  38212042.167 6 200805643.54506
R13  19514251.842 5 104205008.10305
C44                                  21944309.803 7  86114184.48207  21944302.782 5 114269788.41305
G28  21228208.927 7 111554988.90807                  21228209.680 4  86925968.36204  21228210.307 6  86925956.34606  21228214.680 8  83304073.16808
G18  22272762.397 7 117044203.63207                  22272764.028 3  91203243.07803  22272764.739 6  91203254.09406  22272768.838 7  87403206.72407
R12  22722474.268 4 121379373.56604
E26  24175562.783 7 127043438.04407                                  24175566.931 7  94870113.09207  24175565.291 7  97344983.31207
C24                                  22352653.203 7  87716613.01907  22352651.627 6 116396112.85706
S48  76573124.863 5 402394829.79505
C25                                  21864852.474 7  85802377.67007  21864850.240 7 113856008.96807
R14  20305747.687 7 108241074.13007                                  20305754.031 6  84187515.83806
S36  38188896.628 7 200684032.75007
> 2024 02 23 13 45 38.0000000  0 26
C12                                                                  21356639.266 6 111209627.59406  21356642.207 7  85994347.32607
E21  24979270.729 6 131267038.24606                                  24979278.406 7  98024099.58607  24979277.304 7 100581204.44407
C11                                                                  23807212.713 6 123970404.53806  23807219.488 6  95861814.30306
R23  19225069.294 6 102841154.52606
G16  23832600.059 7 125241156.51207                  23832595.437 2  97590493.84502
G31  20970614.576 7 110201313.90707                  20970612.123 3  85871152.62403  20970613.528 5  85871143.63105
E09  27281446.672 6 143364871.62506                                  27281447.782 6 107058204.81306  27281430.635 5 109851024.22705
G25  22389310.804 7 117656729.07007                  22389320.125 6  91680551.43006  22389317.726 6  91680647.41806  22389317.190 7  87860615.33507
G26  21314827.821 7 112010230.80107                  21314833.246 4  87280704.77304  21314832.286 6  87280694.76406  21314831.640 8  83643995.35508
C34                                  22209568.731 7  87155122.27807  22209562.677 6 115651053.51406
E31  26085144.435 7 137078354.70707                                  26085151.003 7 102363734.12607  26085148.711 6 105034090.10506
G29  20671275.199 6 108628284.85906                  20671275.687 6  84645412.88806  20671275.605 6  84645424.86906
R24  20900717.143 7 111765521.24607                                  20900727.731 6  86928765.09006  20900711.869 6  83801904.23206
E13  24806014.269 5                                                  24806003.486 3
S21  38212086.284 6 200805874.40806
R13  19514601.921 5 104206876.94605
C44                                  21944601.712 7  86115329.96107  21944594.724 5 114271308.38805
G28  21228640.650 7 111557258.05007                  21228641.505 4  86927736.52204  21228642.092 6  86927724.52306  21228646.534 8  83305767.65208
G18  22272234.990 7 117041432.75307                  22272236.783 3  91201083.95703  22272237.903 6  91201094.97606  22272241.596 7  87401137.53707
R12  22723230.898 4
E26  24175245.689 7 127041771.53807                                  24175249.823 7  94868868.63007  24175248.174 7  97343706.39207
C24                                  22353125.820 7  87718467.59307  22353124.211 6 116398573.81106
S48  76573169.289 5 402395080.85805
C25                                  21864711.039 7  85801822.81907  21864708.862 7 113855272.70007
R14  20305275.413 7 108238556.09507                                  20305281.532 6  84185557.36506
S36  38188940.521 7 200684266.15107
> 2024 02 23 13 45 39.0000000  0 26
C12                                                                  21356643.578 6 111209650.02406  21356646.471 7  85994364.64707
E21  24979675.542 6 131269164.36806                                  24979683.000 7  98025687.26807  24979681.865 7 100582833.54307
C11                                                                  23806695.622 6 123967711.22506  23806702.380 6  95859731.65506
R23  19225217.335 6 102841947.05906
G16  23831996.467 7 125237992.43007                  23831993.481 2  97588028.33902
G31  20970710.271 7 110201815.38807                  20970707.588 3  85871543.38303  20970708.977 5  85871534.37305
E09  27281696.072 6 143366184.85006                                  27281696.730 6 107059185.49406  27281680.375 5 109852030.49105
G25  22389940.602 7 117660038.17907                  22389949.573 6  91683129.94706  22389947.838 6  91683225.94806  22389946.900 7  87863086.43807
G26  21314435.584 7 112008168.96807                  21314440.790 4  87279098.15504  21314439.926 6  87279088.18406  21314439.262 8  83642455.70708
C34                                  22209236.447 7  87153818.51207  22209230.336 7 115649323.46507
E31  26084736.088 7 137076208.32507                                  26084742.495 7 102362131.30007  26084740.323 6 105032445.46506
G29  20671576.227 6 108629867.83206                  20671576.949 6  84646646.37206  20671576.666 6  84646658.36606
R24  20900111.248 7 111762280.68407                                  20900121.225 6  86926244.64406  20900105.835 6  83799474.44906
E13  24806271.173 4                                                  24806261.261 3
S21  38212130.459 6 200806104.68706
R13  19514951.341 5 104208745.94505
C44                                  21944893.595 7  86116475.42207  21944885.531 5
G28  21229072.225 7 111559527.20107                  21229073.320 4  86929504.68704  21229073.861 6  86929492.67306  21229078.314 8  83307462.14308
G18  22271707.736 7 117038661.71107                  22271709.521 3  91198924.72503  22271710.439 5  91198935.70705  22271714.346 7  87399068.27207
R12  22723993.739 3
E26  24174928.723 7 127040104.94507                                  24174932.615 7  94867624.09707  24174931.049 7  97342429.38907
C24                                  22353598.413 7  87720322.06907  22353596.825 6 116401034.60706
S48  76573214.685 5 402395331.22105
C25                                  21864569.726 7  85801267.91707  21864567.476 7 113854536.34907
R14  20304803.061 7 108236037.96007                                  20304809.489 6  84183598.80906
S36  38188985.555 7 200684498.93007
> 2024 02 23 13 45 40.0000000  0 25
C12                                                                  21356647.757 6 111209672.30706  21356650.814 7  85994381.89807
E21  24980080.258 6 131271290.05606                                  24980087.520 7  98027274.63707  24980086.422 7 100584462.33007
C11                                                                  23806178.648 6 123965017.71606  23806185.002 6  95857648.89206
R23  19225365.486 6 102842739.79206
G16  23831392.877 7 125234827.84807                  23831391.632 2  97585562.43102
G31  20970805.634 7 110202316.99807                  20970803.021 3  85871934.24703  20970804.354 5  85871925.26405
E09  27281946.323 5 143367497.94605                                  27281945.322 6 107060166.04206  27281930.494 5 109853036.61605
G25  22390570.149 7 117663346.89507                  22390578.954 6  91685708.16506  22390577.531 6  91685804.16806  22390576.531 7  87865557.22207
G26  21314043.085 7 112006106.96307                  21314048.293 4  87277491.39604  21314047.650 6  87277481.40806  21314046.895 8  83640915.87708
C34                                  22208904.182 7  87152514.65007  22208898.194 6 115647593.30906
E31  26084327.560 7 137074061.44607                                  26084333.933 7 102360528.12907  26084331.824 6 105030800.47506
G29  20671877.410 6 108631450.62606                  20671878.153 6  84647879.71306  20671878.034 6  84647891.70906
R24  20899505.271 7 111759040.04907                                  20899514.673 6  86923724.16606  20899499.841 6  83797044.65806
E13  24806528.103 4                                                  24806519.171 3
S21  38212173.453 6 200806334.45406
R13  19515300.945 5 104210615.01105
C44                                  21945185.426 7  86117620.72707  21945176.988 5
G28  21229503.994 7 111561796.38207                  21229505.172 4  86931272.88104  21229505.544 6  86931260.88006  21229510.149 8  83309156.66708
G18  22271180.299 7 117035890.51407                  22271182.133 3  91196765.35003  22271182.962 6  91196776.36106  22271187.080 7  87396998.87307
E26  24174611.625 7 127038438.16807                                  24174615.449 7  94866379.43307  24174613.896 7  97341152.26107
C24                                  22354070.899 7  87722176.40807  22354069.355 6 116403495.23706
S48  76573257.134 5 402395581.00105
C25                                  21864428.328 7  85800712.93707  21864425.979 7 113853799.93407
R14  20304330.442 7 108233519.71207                                  20304337.080 6  84181640.20406
S36  38189029.668 7 200684731.11907
> 2024 02 23 13 45 41.0000000  0 26
C12                                                                  21356652.328 6 111209695.29706  21356655.186 7  85994399.62407
E21  24980484.721 5 131273416.16705                                  24980492.283 7  98028862.30507  24980491.031 7 100586091.46607
C11                                                                  23805661.477 6 123962325.24306  23805667.883 6  95855566.92206
R23  19225513.704 6 102843533.34106
G16  23830789.878 6 125231663.50006                  23830789.845 2  97583096.74502
G31  20970901.511 7 110202819.48607                  20970898.616 3  85872325.80003  20970900.174 6  85872316.81406
E09  27282196.054 6 143368811.88306                                  27282194.984 5 107061147.08805  27282182.096 5 109854042.92405
G25  22391200.286 6 117666656.12106                  22391208.442 6  91688286.79306  22391206.982 6  91688382.78606  22391206.342 7  87868028.41107
G26  21313650.542 7 112004045.12407                  21313655.814 4  87275884.77104  21313655.027 6  87275874.75306  21313654.547 8  83639376.15708
C34                                  22208572.055 7  87151211.54607  22208566.569 6 115645864.12306
E31  26083918.242 7 137071914.36507                                  26083925.296 7 102358924.88707  26083923.370 7 105029155.42707
G29  20672178.739 6 108633033.69006                  20672179.415 6  84649113.26506  20672179.604 6  84649125.27906
R24  20898899.489 7 111755800.73007                                  20898908.967 6  86921204.73306  20898894.107 6  83794615.78406
E13  24806784.699 4                                                  24806777.242 4
S21  38212216.466 6 200806565.10906
R13  19515651.694 5 104212485.04405
C44                                  21945477.268 7  86118766.23307  21945468.862 5
G28  21229936.029 6 111564066.73806                  21229937.260 4  86933041.98304  21229937.493 6  86933030.06606  21229942.184 8  83310852.09708
G18  22270653.072 7 117033120.47607                  22270654.915 3  91194606.87703  22270655.775 6  91194617.91406  22270660.080 7  87394930.37907
R12  22725519.023 4
E26  24174294.458 6 127036772.37406                                  24174298.507 7  94865135.49107  24174296.806 7  97339875.87707
C24                                  22354543.623 7  87724031.46507  22354541.501 6 116405956.79206
S48  76573301.273 5 402395831.62405
C25                                  21864286.986 7  85800158.29507  21864284.236 7 113853063.94207
R14  20303858.010 7 108231001.51307                                  20303864.689 6  84179681.61606
S36  38189075.676 7 200684964.20007
> 2024 02 23 13 45 42.0000000  0 25
C12                                                                  21356657.026 6 111209718.76006  21356659.538 7  85994417.78307
E21  24980889.495 6 131275542.49806                                  24980896.861 7  98030450.12007  24980895.864 7 100587720.72007
C11                                                                  23805144.903 6 123959634.82006  23805151.373 6  95853486.45506
R23  19225662.568 6 102844327.12506
G16  23830192.382 6 125228500.01206                  23830187.929 2  97580631.62002
G31  20970996.518 7 110203322.78307                  20970994.461 3  85872717.99103  20970996.150 6  85872709.02206
E09  27282444.137 5 143370124.56705                                  27282444.542 4 107062127.91404  27282432.444 5 109855048.82405
G25  22391829.503 6 117669965.92006                  22391837.957 6  91690865.85606  22391835.961 6  91690961.78306  22391836.506 7  87870499.91107
G26  21313258.088 7 112001982.80307                  21313263.273 4  87274277.76304  21313262.506 6  87274267.80906  21313261.735 7  83637836.15407
C34                                  22208240.145 7  87149909.54507  22208234.749 7 115644136.41007
E31  26083509.401 6 137069766.69706                                  26083516.040 6 102357321.03206  26083515.226 6 105027509.69106
G29  20672480.107 6 108634616.22406                  20672480.597 6  84650346.42906  20672480.785 6  84650358.38306
R24  20898294.183 7 111752563.68407                                  20898303.205 6  86918686.96906  20898288.737 6  83792188.61206
E13  24807044.326 4                                                  24807035.894 3
S21  38212260.842 6 200806797.69006
R13  19516001.162 5 104214355.92705
C44                                  21945769.073 7  86119911.32707  21945762.132 5
G28  21230368.283 6 111566338.93306                  21230369.671 4  86934812.55704  21230369.764 6  86934800.59706  21230374.482 8  83312548.84908
G18  22270126.475 7 117030352.42707                  22270128.149 3  91192449.97703  22270128.827 6  91192461.01106  22270132.914 7  87392863.33307
R12  22726276.690 5
E26  24173977.578 6 127035107.99106                                  24173981.363 7  94863892.56607  24173979.979 7  97338600.46607
C24                                  22355016.444 7  87725887.63307  22355014.124 6 116408419.81906
C25                                  21864145.805 7  85799603.72207  21864142.991 7 113852328.09007
R14  20303385.068 7 108228482.48207                                  20303392.289 6  84177722.28306
S36  38189121.367 7 200685199.11207
> 2024 02 23 13 45 43.0000000  0 25
C12                                                                  21356661.946 6 111209742.97706  21356664.093 7  85994436.51707
E21  24981294.312 5 131277669.38805                                  24981301.387 7  98032038.42407  24981300.843 7 100589350.46907
C11                                                                  23804628.927 6 123956945.64006  23804635.804 6  95851407.11006
R23  19225811.145 6 102845121.65606
G16  23829592.602 5
G31  20971091.791 7 110203826.84607                  20971090.455 4  85873110.76604  20971092.381 6  85873101.75006
E09  27282692.628 4 143371436.48904                                  27282693.331 5 107063108.04805  27282681.262 4 109856054.25604
G25  22392459.400 6 117673276.33606                  22392467.626 6  91693445.38406  22392465.717 6  91693541.34206  22392466.860 7  87872972.10707
G26  21312865.619 7 111999920.14407                  21312870.628 4  87272670.50904  21312869.810 6  87272660.53306  21312868.751 8  83636295.85108
C34                                  22207908.573 7  87148608.39507  22207903.281 7 115642409.88907
E31  26083100.225 6 137067618.24706                                  26083107.024 6 102355716.54906  26083107.046 6 105025863.38206
G29  20672781.777 7 108636198.77507                  20672781.743 6  84651579.58306  20672781.912 6  84651591.59306
R24  20897689.424 7 111749328.22707                                  20897698.117 6  86916170.52206  20897683.884 6  83789762.69606
E13  24807303.204 4                                                  24807296.137 3
S21  38212305.384 6 200807031.60306
R13  19516352.115 5 104216228.01305
C44                                  21946060.954 7  86121056.52207  21946055.672 6
G28  21230800.419 7 111568612.42907                  21230802.276 4  86936584.11304  21230802.490 6  86936572.12506  21230807.067 8  83314246.57008
G18  22269600.181 7 117027586.02307                  22269601.753 3  91190294.35203  22269602.554 6  91190305.33906  22269606.453 7  87390797.48807
R12  22727037.863 4
E26  24173660.319 6 127033444.74606                                  24173664.588 7  94862650.53907  24173663.392 7  97337326.16007
C24                                  22355489.541 7  87727744.75907  22355487.697 7 116410884.07707
C25                                  21864004.770 7  85799049.24707  21864001.749 7 113851592.30707
R14  20302912.270 7 108225962.65407                                  20302919.142 6  84175762.46106
S36  38189167.010 7 200685435.28907
> 2024 02 23 13 45 44.0000000  0 25
C12                                                                  21356667.041 6 111209768.09006  21356668.840 7  85994455.87507
E21  24981700.468 6 131279798.19306                                  24981706.363 7  98033628.14307  24981706.002 6 100590981.67706
C11                                                                  23804114.011 5
R23  19225960.105 6 102845916.87706
G16  23828988.475 5
G31  20971187.433 7 110204330.33407                  20971186.312 4  85873503.08704  20971188.350 6  85873494.10706
E09                                                                  27282943.436 4 107064090.32004
G25  22393090.468 6 117676587.90606                  22393097.554 6  91696025.84406  22393096.378 5  91696121.85305  22393097.481 7  87875445.89907
G26  21312472.601 7 111997855.38807                  21312477.571 4  87271061.60704  21312476.719 6  87271051.57006  21312475.265 7  83634753.91107
C34                                  22207577.186 7  87147308.03907  22207572.059 6 115640684.43506
E31  26082690.197 6 137065466.32706                                  26082697.539 6 102354109.64806  26082697.562 5 105024214.61805
G29  20673082.881 7 108637781.44707                  20673082.912 6  84652812.84506  20673083.108 6  84652824.88006
R24  20897084.987 7 111746094.62807                                  20897093.452 6  86913655.52306  20897079.312 6  83787338.08706
E13  24807562.263 4
S21  38212350.147 6 200807267.35206
R13  19516703.862 5 104218101.75305
C44                                  21946352.786 7  86122202.03907  21946347.471 5
G28  21231233.780 7 111570887.19607                  21231235.120 4  86938356.64504  21231235.398 6  86938344.62706  21231239.930 7  83315945.25907
G18  22269073.874 6 117024822.31106                  22269075.820 3  91188140.79203  22269076.661 6  91188151.80406  22269080.752 7  87388733.70307
R12  22727797.086 4
E26  24173344.444 7 127031783.97207                                  24173348.404 7  94861410.34007  24173347.427 7  97336053.54207
C24                                  22355963.264 7  87729603.63107  22355962.076 6 116413350.76306
C25                                  21863863.295 7  85798494.03907  21863860.490 7 113850855.57307
R14  20302438.959 7 108223440.65107                                  20302445.912 6  84173800.80306
S36  38189211.173 7 200685673.80907
> 2024 02 23 13 45 45.0000000  0 25
C12                                                                  21356671.356 6 111209792.78306  21356673.496 7  85994475.08307
E21  24982105.774 6 131281926.80806                                  24982111.482 7  98035217.50407  24982110.984 6 100592612.51406
C11                                                                  23803599.435 5                  23803605.351 5
R23  19226108.844 6 102846712.02906
G16  23828382.415 5
G31  20971282.857 6 110204833.83906                  20971282.202 4  85873895.42704  20971283.873 6  85873886.43906
E09                                                                  27283191.256 5 107065067.93305  27283181.519 4
G25  22393720.894 5                                  22393727.388 5                  22393727.101 6  91698702.89806  22393728.174 7  87877919.52207
G26  21312079.954 7 111995790.14207                  21312084.406 4  87269452.32704  21312084.024 6  87269442.30406  21312081.907 7  83633211.71907
C34                                  22207245.830 7  87146007.57507  22207240.580 7 115638958.70607
E31  26082280.579 6 137063314.10706                                  26082287.807 6 102352502.52006  26082288.260 6 105022565.47206
G29  20673383.876 7 108639363.72007                  20673384.008 6  84654045.79106  20673384.368 6  84654057.75306
R24  20896480.420 7 111742860.92107                                  20896489.041 6  86911140.49106  20896474.727 6  83784913.53206
E13  24807821.116 4                                                                                  24807817.710 3
S21  38212395.015 6 200807502.65406
R13  19517054.655 5 104219975.62205
C44                                  21946644.638 7  86123347.14807  21946639.140 6
G28  21231666.772 7 111573161.91807                  21231667.969 4  86940129.14804  21231668.172 6  86940117.16306  21231672.759 7  83317643.94007
G18  22268547.619 7 117022058.56007                  22268549.903 3  91185987.19303  22268550.613 6  91185998.21106  22268554.906 7  87386669.80807
R12  22728557.477 4
E26  24173028.557 7 127030122.79807                                  24173032.226 7  94860169.93507  24173031.641 7  97334780.77907
C24                                  22356437.098 7  87731462.35807  22356436.021 6 116415817.20506
C25                                  21863721.718 7  85797938.56007  21863718.992 7 113850118.51407
R14  20301965.312 7 108220918.15807                                  20301972.520 6  84171838.96206
S36  38189255.554 7 200685911.84407
> 2024 02 23 13 45 46.0000000  0 24
C12                                                                  21356676.069 6 111209817.54706  21356678.311 7  85994494.19707
E21  24982510.550 6 131284053.32306                                  24982516.467 7  98036805.70407  24982515.489 7 100594242.05207
C11                                                                  23803084.677 4                  23803090.094 4
R23  19226257.464 6 102847507.22006
G31  20971378.916 7 110205338.73007                  20971378.349 4  85874288.85904  20971380.407 6  85874279.90106
E09                                                                                                  27283429.936 5
G25  22394350.219 6                                  22394356.591 4                  22394357.337 6  91701282.73206  22394358.166 7  87880391.78407
G26  21311687.269 7 111993726.06507                  21311691.489 4  87267843.95504  21311690.913 6  87267834.04406  21311689.331 7  83631670.43307
C34                                  22206914.707 7  87144707.75507  22206908.931 7 115637233.89007
E31  26081871.539 6 137061163.16106                                  26081878.889 6 102350896.32506  26081878.859 6 105020917.37206
G29  20673684.641 7 108640945.30607                  20673684.962 6  84655278.17706  20673685.236 6  84655290.14406
R24  20895876.192 7 111739628.47907                                  20895884.131 6  86908626.29806  20895870.288 6  83782489.81006
E13  24808079.965 4                                                                                  24808074.971 4
S21  38212440.826 6 200807738.38206
R13  19517404.853 5 104221849.06505
C44                                  21946936.200 7  86124491.63907  21946929.324 5
G28  21232099.858 7 111575437.91007                  21232101.084 4  86941902.63404  21232101.398 6  86941890.62906  21232105.778 7  83319343.49707
G18  22268021.942 7 117019294.79507                  22268024.027 3  91183833.61903  22268024.282 6  91183844.57906  22268028.972 7  87384605.95007
R12  22729321.726 4
E26  24172712.186 6 127028461.40006                                  24172715.916 7  94858929.26607  24172715.524 7  97333507.74307
C24                                  22356910.560 7  87733320.89107  22356908.872 6 116418283.41606
C25                                  21863580.163 7  85797383.82907  21863577.879 7 113849382.40407
R14  20301491.806 7 108218396.56207                                  20301499.644 6  84169877.70006
S36  38189301.243 6 200686149.84106
> 2024 02 23 13 45 47.0000000  0 26
C12                                                                  21356681.247 6 111209842.80806  21356683.204 7  85994513.75707
E21  24982915.578 6 131286180.36106                                  24982921.348 7  98038394.05407  24982920.365 7 100595871.89007
C11                                                                                                  23802574.413 5
R23  19226406.117 6 102848303.12306
G16  23827173.316 5
G31  20971475.258 7 110205844.71807                  20971474.697 4  85874683.14204  20971476.228 6  85874674.15606
E09                                                                                                  27283680.244 5
G25  22394980.541 6 117686417.46916                  22394986.465 5  91703726.86115  22394987.300 6  91703862.78406  22394988.308 8  87882864.29708
G26  21311294.779 7 111991662.46607                  21311298.622 4  87266235.96404  21311298.072 6  87266225.98806  21311296.795 7  83630129.37707
C34                                  22206583.588 7  87143408.53007  22206578.038 7 115635509.88607
E31  26081462.505 5 137059013.54505                                  26081470.724 5 102349290.21805  26081469.851 5 105019269.44205
G29  20673985.850 7 108642527.14607                  20673985.961 6  84656510.77206  20673986.372 6  84656522.72806
R24  20895271.621 7 111736397.02907                                  20895279.455 6  86906113.00706  20895266.255 6  83780066.93106
E13  24808335.939 4                                                                                  24808334.164 4
S21  38212484.998 6 200807974.62006
R22  22151563.423 6 118246550.29116
R13  19517754.642 5 104223723.27205
C44                                  21947227.955 7  86125636.27107  21947220.715 5
G28  21232533.342 7 111577714.84307                  21232534.382 4  86943676.86204  21232534.804 6  86943664.88406  21232539.020 7  83321043.77507
G18  22267496.451 7 117016531.78507                  22267498.217 3  91181680.62603  22267498.309 6  91181691.63006  22267503.022 7  87382542.68807
R12  22730084.674 4
E26  24172396.050 6 127026800.63906                                  24172399.793 7  94857689.10207  24172399.504 7  97332235.19507
C24                                  22357384.296 7  87735179.85107  22357382.504 6 116420750.18806
C25                                  21863438.813 7  85796829.48207  21863436.753 7 113848646.79107
R14  20301018.714 7 108215875.29307                                  20301026.767 6  84167916.74006
S36  38189346.586 7 200686388.17507
> 2024 02 23 13 45 48.0000000  0 26
C12                                                                  21356685.794 6 111209868.67006  21356688.158 7  85994533.76607
E21  24983320.218 6 131288307.40306                                  24983326.272 7  98039982.40507  24983325.248 7 100597501.64507
C11                                                                  23802055.327 4                  23802059.152 5
R23  19226554.960 6 102849100.10006
G16  23826568.826 4
G31  20971571.921 7 110206351.71007                  20971571.234 4  85875078.21004  20971572.894 6  85875069.24806
E09                                                                                                  27283929.324 6 109861080.32116
G25  22395611.078 7 117689728.50507                  22395616.314 5  91706306.86505  22395617.337 6  91706442.77606  22395618.390 7  87885336.81107
G26  21310902.263 7 111989599.79707                  21310905.958 4  87264628.68104  21310905.467 6  87264618.71306  21310904.730 7  83628589.10307
C34                                  22206252.539 7  87142109.72207  22206247.018 7 115633786.39307
E31  26081054.528 6 137056867.33416                                  26081063.123 6 102347684.69506  26081060.089 6 105017622.01406
G29  20674286.824 6 108644109.56706                  20674287.081 6  84657743.82306  20674287.520 6  84657755.81306
R24  20894667.211 7 111733166.23207                                  20894675.869 6  86903600.10406  20894661.951 6  83777644.45906
E13  24808592.167 4                                                                                  24808588.604 4
S21  38212531.531 6 200808210.92206
R22  22152326.800 6 118250625.00506
R13  19518106.042 5 104225598.21805
C44                                  21947519.809 7  86126781.31207  21947512.259 6
G28  21232966.838 7 111579992.56507                  21232967.770 4  86945451.70004  21232968.044 6  86945439.70606  21232972.592 7  83322744.69907
G18  22266970.788 7 117013769.03207                  22266972.393 4  91179527.84604  22266972.511 6  91179538.85606  22266977.197 7  87380479.60907
R12  22730848.316 4
E26  24172080.043 6 127025140.03906                                  24172083.681 7  94856449.08507  24172083.430 7  97330962.87107
C24                                  22357858.076 7  87737039.02107  22357855.357 6 116423217.26306
C25                                  21863297.640 7  85796275.92507  21863295.501 7 113847912.22807
R14  20300545.596 7 108213355.02707                                  20300553.722 6  84165956.55306
S36  38189391.888 7 200686626.33807
> 2024 02 23 13 45 49.0000000  0 26
C12                                                                  21356690.804 6 111209894.89006  21356693.165 7  85994554.02907
E21  24983724.885 4 131290433.88504                                  24983731.041 5  98041571.04305  24983730.241 5 100599131.77505
C11                                                                  23801541.265 4                  23801543.981 5
R23  19226703.857 6 102849897.74406
G16  23825966.395 5
G31  20971668.269 7 110206859.16007                  20971667.876 4  85875473.63404  20971669.245 6  85875464.62706
E09                                                                                                  27284179.013 6 109862086.12206
G25  22396241.616 5 117693039.55005                  22396246.397 5  91708886.88205  22396247.239 5  91709022.90205  22396248.511 7  87887809.47207
G26  21310510.074 7 111987537.39407                  21310513.447 4  87263021.61504  21310512.576 6  87263011.64806  21310512.323 7  83627048.97907
C34                                  22205921.553 7  87140810.90807  22205915.844 7 115632062.96907
E31  26080644.437 6 137054717.28006                                  26080654.763 6 102346079.17106  26080651.465 6 105015974.62406
G29  20674588.235 7 108645692.32807                  20674588.262 6  84658977.13706  20674588.364 6  84658989.13406
R24  20894062.982 7 111729935.40907                                  20894071.454 6  86901087.24006  20894057.698 6  83775221.93806
E13  24808846.669 4                                                  24808859.090 3                  24808841.658 4
S21  38212575.387 7 200808446.56107
R22  22153090.155 6 118254700.13306
R13  19518457.320 5 104227473.52905
C44                                  21947811.666 7  86127926.65507  21947804.142 6
G28  21233400.496 7 111582270.35007                  21233401.205 4  86947226.58804  21233401.630 6  86947214.57406  21233406.006 7  83324445.67907
G18  22266445.281 7 117011006.20507                  22266446.613 3  91177375.00103  22266446.959 6  91177385.95806  22266451.619 7  87378416.47107
R12  22731609.958 4
E26  24171764.435 6 127023479.51606                                  24171767.719 7  94855209.06007  24171767.548 7  97329690.52107
C24                                  22358331.854 7  87738898.16607  22358328.348 6 116425684.30106
C25                                  21863156.770 7  85795722.53107  21863154.095 7 113847177.90507
R14  20300072.711 7 108210835.20607                                  20300081.579 6  84163996.82706
S36  38189436.323 7 200686863.98207
> 2024 02 23 13 45 50.0000000  0 26
C12                                                                  21356695.705 6 111209920.79606  21356698.213 7  85994574.01207
E21  24984133.999 4 131292563.46604                                  24984135.398 5  98043159.59805  24984135.297 4 100600761.56304
C11                                                                  23801026.394 4                  23801027.889 5
R23  19226852.283 6 102850695.62406
G16  23825363.135 5
G31  20971765.346 7 110207366.66907                  20971764.469 4  85875869.09504  20971765.075 6  85875860.19006
E09  27284416.277 5 143380615.15505                                  27284426.277 5 107069967.09805  27284428.434 5 109863092.07105
G25  22396871.487 4                                                                  22396877.551 4  91711602.75404  22396878.730 6  87890281.80706
G26  21310117.741 7 111985475.01507                  21310120.900 4  87261414.57504  21310120.731 6  87261404.44806  21310119.946 7  83625508.90207
C34                                  22205590.541 7  87139511.70307  22205584.865 6 115630338.97706
E31  26080235.668 5 137052566.44905                                  26080245.705 5 102344472.67605  26080242.144 5 105014327.28405
G29  20674889.169 7 108647274.93907                  20674889.413 6  84660210.33806  20674889.650 6  84660222.37106
R24  20893458.456 7 111726703.99907                                  20893467.916 6  86898573.92206  20893453.322 6  83772799.00206
E13  24809101.798 4                                                  24809117.053 4
S21  38212620.943 6 200808681.05406
R22  22153853.800 6 118258775.40606
R13  19518808.567 5 104229348.51205
C44                                  21948103.526 7  86129071.84307  21948096.475 6
G28  21233834.086 7 111584547.79807                  21233834.605 4  86949001.23404  21233835.254 6  86948989.20206  21233839.257 7  83326146.33307
G18  22265919.065 7 117008242.46107                  22265920.646 3  91175221.44403  22265921.043 6  91175232.43306  22265925.867 7  87376352.65907
R12  22732372.236 4
E26  24171448.705 6 127021818.37706                                  24171451.712 7  94853968.60507  24171451.483 7  97328417.66807
C24                                  22358805.636 7  87740756.78607  22358801.427 6 116428150.55406
C25                                  21863015.775 7  85795169.13307  21863012.970 7 113846443.59107
R14  20299600.119 7 108208315.73607                                  20299609.675 7  84162036.99307
S36  38189481.362 7 200687100.40707
> 2024 02 23 13 45 51.0000000  0 26
C12                                                                  21356700.616 6 111209946.92406  21356703.249 7  85994594.25007
E21                                                                  24984541.422 3  98044748.31403
C11                                                                  23800510.261 4                  23800513.303 5
R23  19227001.738 6 102851494.15106
G16  23824758.714 5
G31  20971861.930 7 110207874.54707                  20971861.036 4  85876264.88204  20971862.230 6  85876255.86206
E09  27284666.825 5 143381928.28605                                  27284675.967 6 107070947.99106  27284677.421 5 109864098.60505
G25  22397504.086 4                                                                                                  22397508.958 5  87892754.69405
G26  21309725.442 7 111983412.77007                  21309728.433 4  87259807.62704  21309728.519 6  87259797.59906  21309727.817 7  83623968.88107
C34                                  22205259.482 7  87138212.33507  22205253.367 6 115628614.69906
E31  26079827.052 5 137050416.01205                                  26079834.638 6 102342867.02406  26079832.598 6 105012679.60906
G29  20675190.364 7 108648858.02607                  20675190.676 6  84661443.91306  20675190.827 6  84661455.93606
R24  20892854.188 7 111723472.26007                                  20892863.683 6  86896060.37006  20892849.094 6  83770375.90506
E13  24809357.458 4                                                  24809372.767 4
S21  38212663.843 6 200808914.66206
R22  22154617.939 6 118262851.86406                                  22154625.393 5  91982245.22215
R13  19519159.090 5 104231223.86305
C44                                  21948395.423 7  86130217.34807  21948388.295 5 114291063.41115
G28  21234267.282 7 111586825.13907                  21234267.990 4  86950775.78504  21234268.420 6  86950763.76406  21234272.664 8  83327846.95608
G18  22265393.122 7 117005478.39907                  22265394.674 3  91173067.62403  22265395.116 6  91173078.65106  22265399.541 7  87374288.61607
R12  22733134.925 5
E26  24171132.207 6 127020157.01606                                  24171135.889 7  94852728.01907  24171135.268 7  97327144.68607
C24                                  22359279.274 7  87742615.28307  22359275.215 6 116430616.63306
C25                                  21862874.984 7  85794615.88007  21862871.962 7 113845709.47907
R14  20299128.674 7 108205796.61807                                  20299137.833 7  84160077.72307
S36  38189526.489 7 200687336.06607
> 2024 02 23 13 45 52.0000000  0 26
C12                                                                  21356705.344 6 111209973.00906  21356707.980 7  85994614.41907
E21                                                                  24984949.586 3  98046337.48503
C11                                                                  23799994.795 4                  23799996.835 5
R23  19227151.283 7 102852293.44707
G16  23824155.782 5
G31  20971958.914 7 110208382.88207                  20971957.824 4  85876660.98504  20971959.245 6  85876651.91106
E09  27284917.665 5 143383243.07205                                  27284926.721 5 107071929.61905  27284929.022 5 109865105.76205
G25  22398135.245 3                                                                  22398141.615 3                  22398140.950 4  87895227.06204
G26  21309333.022 7 111981351.43007                  21309336.056 4  87258201.39704  21309336.401 6  87258191.36606  21309335.535 7  83622429.56107
C34                                  22204928.182 7  87136912.40507  22204922.077 6 115626889.80006
E31  26079417.967 6 137048266.79406                                  26079424.716 6 102341261.93106  26079423.928 6 105011032.68606
G29  20675492.013 7 108650441.61807                  20675492.014 6  84662677.87706  20675492.255 6  84662689.85306
R24  20892249.582 7 111720239.39307                                  20892259.026 6  86893545.95006  20892244.413 6  83767951.92306
E13                                                                  24809628.794 4
S21  38212706.600 6 200809146.41806
R22  22155381.630 7                                                  22155389.478 6
R13  19519509.850 5 104233098.90105
C44                                  21948687.367 7  86131363.10607  21948679.761 6 114292583.62006
G28  21234700.713 7 111589101.82007                  21234701.259 4  86952549.82104  21234701.404 6  86952537.80206  21234705.980 7  83329547.07307
G18  22264866.978 7 117002712.91607                  22264868.425 3  91170912.70303  22264868.748 6  91170923.71306  22264873.166 7  87372223.41507
R12  22733895.038 5
E26  24170815.948 6 127018494.66706                                  24170819.623 7  94851486.58107  24170819.000 7  97325870.93607
C24                                  22359752.756 7  87744472.82007  22359748.474 6 116433081.61006
C25                                  21862734.293 7  85794063.17207  21862731.284 7 113844976.02907
R14  20298656.751 7 108203279.01807                                  20298664.696 7  84158119.54907
S36  38189572.825 7 200687569.65407
> 2024 02 23 13 45 53.0000000  0 26
C12                                                                  21356710.132 6 111209998.80506  21356713.171 7  85994634.41007
E21  24985349.966 3                                                  24985354.770 3  98047924.58003
C11                                                                  23799478.528 5
R23  19227301.571 6 102853093.96806
G16  23823553.903 6
G31  20972054.090 5 110208890.47205                  20972054.400 4  85877056.46504  20972054.757 5  85877047.35405
E09  27285167.603 5 143384558.80405                                  27285177.066 5 107072912.13805  27285180.141 5 109866113.88905
G25  22398766.217 3                                                                  22398770.249 3                  22398771.635 4  87897697.88804
G26  21308940.421 7 111979290.76407                  21308943.810 4  87256595.66504  21308944.744 6  87256585.59106  21308943.634 7  83620890.70507
C34                                  22204596.647 7  87135610.26307  22204590.601 6 115625161.91206
E31  26079007.914 6 137046117.78306                                  26079015.757 7 102339657.21007  26079014.749 6 105009386.11506
G29  20675793.682 7 108652027.01407                  20675793.677 6  84663913.24606  20675793.888 6  84663925.22006
R24  20891644.424 7 111717002.46207                                  20891653.865 6  86891028.33906  20891639.023 6  83765524.85806
E13                                                                                                  24809860.369 6  99899026.88616
S21  38212748.344 6 200809373.32706
R22  22156145.500 6 118271010.77216                                  22156155.034 6  91988591.43616
R13  19519861.019 5 104234973.58705
C44                                  21948979.302 7  86132510.26207  21948972.279 6 114294105.90006
G28  21235133.257 7 111591375.42807                  21235133.896 4  86954321.46704  21235134.581 6  86954309.46106  21235138.704 7  83331244.90707
G18  22264339.893 7 116999943.81507                  22264341.458 3  91168754.96003  22264340.856 5  91168765.91205  22264346.534 7  87370155.60207
R12  22734652.924 5
E26  24170499.678 7 127016830.16807                                  24170502.913 7  94850243.65607  24170502.047 7  97324595.54507
C24                                  22360225.464 7  87746328.57807  22360221.262 7 116435544.05907
C25                                  21862593.329 7  85793510.45707  21862590.022 7 113844242.65907
R14  20298184.353 7 108200763.41007                                  20298191.920 6  84156162.97606
S36  38189618.626 7 200687798.59107
> 2024 02 23 13 45 54.0000000  0 26
C12                                                                  21356715.114 6 111210024.53606  21356718.165 7  85994654.26607
E21  24985754.044 3                                                  24985759.228 4  98049511.46204
C11                                                                  23798961.479 5
R23  19227451.613 6 102853894.75106
G16  23822952.124 6
G31  20972150.848 5 110209397.80105                  20972150.884 3  85877451.76303  20972150.752 5  85877442.77705
E09  27285418.827 5 143385874.35305                                  27285427.615 5 107073894.47305  27285429.774 5 109867121.92805
G25  22399398.371 4                                                                  22399400.770 3
G26  21308548.397 7 111977229.66407                  21308551.583 4  87254989.59504  21308552.684 6  87254979.59606  21308551.692 7  83619351.59607
C34                                  22204264.907 7  87134307.93707  22204258.696 6 115623433.79306
E31  26078599.645 6 137043968.27106                                  26078606.266 6 102338052.00406  26078605.628 6 105007739.04006
G29  20676095.121 7 108653612.20807                  20676095.304 6  84665148.45906  20676095.943 6  84665160.45306
R24  20891039.471 7 111713765.38107                                  20891048.920 6  86888510.60906  20891033.668 6  83763097.70306
E13  24810124.534 3                                                  24810131.737 5                  24810117.825 6  99900064.57606
S21  38212793.043 6 200809599.55506
R22  22156907.592 6 118275092.55806                                  22156920.684 6  91991766.20906
R13  19520211.780 5 104236848.40005
C44                                  21949271.625 7  86133657.31607  21949264.298 6 114295627.93706
G28  21235565.804 7 111593648.96107                  21235566.573 4  86956093.04404  21235567.152 6  86956081.04006  21235571.325 7  83332942.66907
G18  22263812.884 7 116997174.54107                  22263814.373 3  91166597.08903  22263813.657 5  91166608.10605  22263819.782 7  87368087.61907
R12  22735411.352 5
E26  24170183.388 7 127015165.47107                                  24170186.276 7  94849000.52807  24170185.259 7  97323320.02907
C24                                  22360698.335 7  87748184.17307  22360693.945 7 116438006.33407
C25                                  21862452.312 7  85792957.63107  21862448.870 7 113843509.04507
R14  20297712.243 7 108198247.53507                                  20297718.919 6  84154206.23706
S36  38189660.688 7 200688026.97507
> 2024 02 23 13 45 55.0000000  0 25
C12                                                                  21356719.806 6 111210050.07206  21356723.145 7  85994674.03007
E21  24986161.302 3
C11                                                                  23798444.175 5
R23  19227601.719 6 102854695.67406
G16  23822350.741 6 125187294.20516
G31  20972247.071 5 110209905.22505                  20972247.382 3  85877847.12803  20972247.715 5  85877838.14405
E09  27285670.363 5 143387189.57505                                  27285678.380 5 107074876.63005  27285678.611 5 109868129.68105
G25                                                                                  22400032.576 3                  22400030.641 4  87902638.71304
G26  21308156.351 7 111975168.28607                  21308159.363 4  87253383.31804  21308160.361 6  87253373.35406  21308159.551 7  83617812.29007
C34                                  22203933.014 7  87133005.37007  22203926.846 6 115621705.32306
E31  26078190.356 5 137041818.17705                                  26078196.740 7 102336446.43607  26078196.433 6 105006091.55906
G29  20676396.664 7 108655197.26707                  20676396.933 6  84666383.57606  20676397.337 6  84666395.56906
R24  20890434.514 7 111710528.05707                                  20890443.766 6  86885992.69106  20890428.271 6  83760670.36306
E13                                                                                                  24810375.491 6  99901102.20206
S21  38212834.288 6 200809824.95606
R22  22157671.519 6 118279174.29306                                  22157685.087 6  91994940.80906
R13  19520563.184 5 104238723.07705
C44                                  21949563.882 7  86134804.22407  21949556.377 6 114297149.86606
G28  21235998.594 7 111595922.32207                  21235999.260 4  86957864.48604  21235999.894 6  86957852.51306  21236003.993 7  83334640.31607
G18  22263286.133 7 116994404.86107                  22263287.162 3  91164438.90103  22263286.620 5  91164449.91205  22263292.828 7  87366019.39207
E26  24169866.852 7 127013500.50507                                  24169869.604 7  94847757.20307  24169868.489 7  97322044.25607
C24                                  22361171.122 7  87750039.49207  22361166.447 7 116440468.25907
C25                                  21862311.255 7  85792404.65107  21862307.313 7 113842775.22307
R14  20297240.061 7 108195731.49007                                  20297246.582 6  84152249.36206
S36  38189704.820 7 200688254.56407
> 2024 02 23 13 45 56.0000000  0 24
C12                                                                  21356725.030 7 111210075.81307  21356728.150 7  85994693.89407
E21  24986564.709 3
C11                                                                  23797926.848 5
R23  19227751.673 6 102855497.01906
G31  20972344.391 6 110210413.27606                  20972343.853 3  85878243.00503  20972344.712 5  85878234.00205
E09  27285921.817 5 143388505.14105                                  27285929.369 5 107075859.06105  27285928.618 5 109869137.73205
G25                                                                                  22400660.857 3                  22400659.954 4  87905108.71204
G26  21307763.778 7 111973107.10107                  21307767.144 4  87251777.20304  21307767.792 6  87251767.20006  21307767.474 7  83616273.07107
C34                                  22203601.269 7  87131702.95607  22203595.216 6 115619977.10606
E31  26077781.270 5 137039667.95805                                  26077786.474 6 102334840.79906  26077787.245 6 105004444.02906
G29  20676698.360 7 108656782.29707                  20676698.549 6  84667618.66706  20676699.116 6  84667630.67306
R24  20889829.686 7 111707291.00107                                  20889838.799 6  86883475.01006  20889822.926 6  83758243.20706
E13                                                                                                  24810633.128 6  99902139.83506
S21  38212876.124 6 200810050.10506
R22  22158435.814 7 118283255.73307                                  22158449.366 6  91998115.24406
R13  19520914.369 5 104240598.03605
C44                                  21949856.025 7  86135951.12007  21949848.971 6 114298671.70106
G28  21236431.174 7 111598196.06607                  21236432.028 4  86959636.24804  21236432.682 6  86959624.23606  21236436.680 7  83336338.22407
G18  22262758.973 7 116991635.22007                  22262759.966 3  91162280.74603  22262759.510 5  91162291.74705  22262766.018 7  87363951.15507
E26  24169550.318 6 127011835.51906                                  24169552.867 7  94846513.86507  24169551.714 7  97320768.46807
C24                                  22361643.891 7  87751894.78107  22361639.520 7 116442930.15307
C25                                  21862170.497 7  85791851.86007  21862166.294 7 113842041.69907
R14  20296768.068 7 108193215.73907                                  20296774.119 5  84150292.76805
S36  38189747.640 6 200688481.81006
> 2024 02 23 13 45 57.0000000  0 25
C12                                                                  21356730.052 6 111210101.79606  21356733.130 7  85994713.98007
E21  24986970.728 3                                                  24986972.255 4
C11                                                                  23797409.101 4                  23797425.063 5
R23  19227901.049 6 102856299.04306
G31  20972440.199 6 110210921.49306                  20972440.463 3  85878639.02503  20972441.202 5  85878630.02405
E09  27286172.407 5 143389820.71605                                  27286180.558 5 107076841.44305  27286178.818 5 109870145.77205
G25                                                                                  22401293.127 3                  22401288.372 4  87907578.94504
G26  21307371.618 7 111971045.83707                  21307374.799 4  87250171.02704  21307375.446 6  87250161.02306  21307375.269 7  83614733.81807
C34                                  22203269.493 7  87130400.59607  22203262.599 6 115618248.93906
E31  26077372.453 5 137037517.44805                                  26077376.075 6 102333234.88606  26077377.868 6 105002796.23706
G29  20676999.885 7 108658367.62707                  20677000.227 6  84668853.99506  20677000.693 6  84668865.98706
R24  20889224.630 7 111704054.17207                                  20889233.057 6  86880957.46206  20889217.861 7  83755816.23207
E13                                                                                                  24810890.823 6  99903177.70306
S21  38212919.324 6 200810274.98606
R22  22159201.346 7 118287337.35907                                  22159213.806 6  92001289.83306
R13  19521265.238 5 104242473.44305
C44                                  21950148.322 7  86137098.20907  21950141.695 6 114300193.83106
G28  21236863.961 7 111600469.99107                  21236864.761 4  86961408.14504  21236865.204 6  86961396.14206  21236869.333 7  83338036.29907
G18  22262231.712 7 116988865.78607                  22262232.878 3  91160122.74603  22262232.415 5  91160133.75105  22262239.276 7  87361883.07507
E26  24169233.524 6 127010170.76606                                  24169236.172 7  94845270.71507  24169235.069 7  97319492.89607
C24                                  22362116.840 7  87753750.23807  22362112.497 7 116445392.26807
C35                                  25300507.580 7  99284626.26717  25300498.068 7 131746333.13117
C25                                  21862029.771 7  85791299.16507  21862025.816 7 113841308.26607
R14  20296296.264 7 108190700.03007                                  20296302.120 5  84148336.06505
S36  38189792.307 6 200688708.85706
> 2024 02 23 13 45 58.0000000  0 25
C12                                                                  21356735.228 6 111210128.11606  21356738.199 7  85994734.34107
E21  24987376.630 4                                                  24987377.115 4
C11                                                                  23796891.636 5                  23796908.170 4
R23  19228050.865 6 102857101.77306
G31  20972537.548 6 110211430.16606                  20972537.220 3  85879035.39303  20972538.949 5  85879026.35405
E09  27286423.377 5 143391136.53005                                  27286431.785 5 107077824.00405  27286429.167 5 109871153.97305
G25                                                                                  22401922.803 3                  22401916.066 4  87910049.32004
G26  21306979.368 7 111968984.68807                  21306982.490 4  87248564.94104  21306983.026 6  87248554.94906  21306982.991 8  83613194.65908
C34                                  22202937.688 7  87129098.39607  22202930.344 6 115616520.94706
E31  26076963.383 6 137035366.82206                                  26076966.656 6 102331628.87606  26076968.528 6 105001148.34606
G29  20677301.637 7 108659953.24907                  20677301.959 6  84670089.54706  20677302.570 6  84670101.52606
R24  20888619.821 7 111700817.66507                                  20888627.708 6  86878440.17406  20888612.773 6  83753389.50806
E13                                                                  24811149.805 6  97364331.40816  24811148.823 6  99904215.82306
S21  38212961.885 6 200810499.65806
R22  22159967.216 7 118291419.16807                                  22159978.813 6  92004464.57806
R13  19521616.388 5 104244349.43305
C44                                  21950440.738 7  86138245.53107  21950434.516 6 114301716.27306
G28  21237296.759 6 111602744.32806                  21237297.605 4  86963180.34704  21237297.933 6  86963168.35306  21237302.032 7  83339734.66907
G18  22261704.877 7 116986096.61007                  22261705.898 3  91157964.94903  22261705.840 5  91157975.96205  22261712.525 7  87359815.18807
E26  24168916.813 7 127008506.30907                                  24168919.544 7  94844027.77507  24168918.456 7  97318217.53807
C24                                  22362589.815 7  87755605.88207  22362585.435 7 116447854.62507
C35                                  25301145.345 7  99287128.44607  25301135.950 7 131749653.40307
C25                                  21861889.066 7  85790746.66107  21861885.248 7 113840575.12407
R14  20295824.292 7 108188184.57807
S36  38189835.508 7 200688935.72407
> 2024 02 23 13 45 59.0000000  0 26
C12                                                                  21356740.565 6 111210154.93206  21356743.364 7  85994755.07707
E21  24987781.455 4                                                  24987781.113 4                  24987782.630 3
C11                                                                  23796374.270 5                  23796393.683 4
R23  19228200.920 6 102857905.25606
G16  23819932.533 5
G31  20972635.045 6 110211939.57806                  20972633.981 3  85879432.32903  20972635.437 5  85879423.32805
E09  27286674.245 5 143392452.81405                                  27286682.638 5 107078806.96805  27286679.917 5 109872162.55705
G25  22402541.091 3                                                                  22402553.226 3                  22402544.918 4  87912519.67504
G26  21306587.304 7 111966923.92107                  21306590.289 4  87246959.14704  21306591.000 6  87246949.15906  21306590.852 8  83611655.77208
C34                                  22202605.905 7  87127796.50807  22202598.650 6 115614793.40206
E31  26076554.434 6 137033216.26906                                  26076557.556 6 102330022.97606  26076559.539 6 104999500.55006
G29  20677603.239 7 108661539.25707                  20677603.762 6  84671325.39306  20677604.534 6  84671337.38606
R24  20888015.006 7 111697581.66807                                  20888022.263 6  86875923.28206  20888007.674 6  83750963.15406
E13                                                                  24811407.933 6  97365343.42606  24811406.838 6  99905254.24806
S21  38213005.743 6 200810724.34406
R22  22160733.101 7 118295501.22907                                  22160743.342 6  92007639.50506
R13  19521967.727 5 104246226.03005
C44                                  21950733.232 7  86139393.12507  21950727.210 6 114303239.09706
G28  21237729.672 6 111605019.24706                  21237730.543 4  86964953.01104  21237730.781 6  86964941.00706  21237734.904 7  83341433.46407
G18  22261178.012 7 116983327.77507                  22261178.953 3  91155807.42003  22261179.202 5  91155818.43405  22261185.786 7  87357747.55407
E26  24168600.274 7 127006842.19807                                  24168602.908 7  94842785.09907  24168601.812 7  97316942.43607
C24                                  22363062.783 7  87757461.74607  22363058.682 7 116450317.27507
C35                                  25301783.008 7  99289630.59907  25301773.777 7 131752973.67307
C25                                  21861748.406 7  85790194.52107  21861744.626 7 113839842.47207
R14  20295352.661 7 108185669.60107                                  20295357.465 4  84144423.40604
S36  38189877.143 7 200689162.53907
> 2024 02 23 13 46  0.0000000  0 28
C12                                                                  21356745.991 6 111210182.00206  21356748.543 7  85994775.99207
E21  24988186.732 4                                                  24988184.909 4                  24988186.525 3
C11                                                                  23795856.456 4                  23795878.324 4
R23  19228351.190 6 102858709.32406
G16  23819330.827 4
G31  20972732.304 6 110212449.48206                  20972730.644 3  85879829.66403  20972732.558 5  85879820.65205
E09  27286925.009 5 143393769.32705                                  27286933.410 5 107079790.06305  27286930.570 5 109873171.30805
G25                                                                                  22403184.520 3                  22403173.814 4  87914990.01204
G26  21306195.183 7 111964863.29707                  21306198.136 4  87245353.46904  21306198.876 6  87245343.48106  21306198.703 7  83610117.00907
C34                                  22202274.125 7  87126494.77407  22202267.415 6 115613066.09406
E31  26076145.246 6 137031065.61406                                  26076148.598 6 102328416.97306  26076150.336 6 104997852.62706
G29  20677904.971 7 108663125.43307                  20677905.596 6  84672561.37406  20677906.695 6  84672573.36506
R24  20887410.072 7 111694345.97507                                  20887417.514 6  86873406.64006  20887402.581 7  83748537.03507
E13  24811651.707 3                                                  24811665.995 6  97366355.56406  24811664.934 6  99906292.82006
S21  38213046.614 6 200810948.77906
R22  22161498.879 7 118299583.31807                                  22161507.716 6  92010814.40106
R13  19522319.460 5 104248103.01705
C44                                  21951025.736 7  86140540.84407  21951019.783 6 114304762.04806
G28  21238162.493 7 111607294.51707                  21238163.517 4  86966725.94104  21238163.615 6  86966713.94206  21238167.850 7  83343132.53207
G18  22260651.161 7 116980559.08607                  22260651.990 3  91153650.00103  22260652.503 5  91153661.02105  22260659.000 7  87355680.02607
E26  24168283.612 7 127005178.21307                                  24168286.265 7  94841542.53607  24168285.185 7  97315667.45207
C24                                  22363535.729 7  87759317.71807  22363531.620 7 116452780.05707
C35                                  25302420.656 7  99292132.63507  25302411.520 7 131756293.77607
S23  38487732.986 7 202254402.68717
C25                                  21861607.773 7  85789642.58807  21861603.946 7 113839110.05807
R14  20294880.812 7 108183154.85107                                  20294887.077 5  84142467.62605
S36  38189920.464 7 200689389.10907
C38                                  39261282.794 6 154069706.35116  39261274.118 6 204443756.94616
> 2024 02 23 13 46  1.0000000  0 29
C12                                                                  21356751.322 6 111210209.22006  21356753.766 7  85994797.05007
E21  24988590.989 4                                                  24988587.561 4                  24988590.424 3
C11                                                                  23795337.756 3                  23795362.375 4
R23  19228501.629 6 102859513.89806
G16  23818727.444 5
G31  20972829.603 6 110212959.58806                  20972827.464 3  85880227.14803  20972830.464 5  85880218.15705
E09  27287175.857 6 143395085.78206                                  27287182.859 5 107080773.12305  27287181.547 5 109874180.02305
G25                                                                                  22403816.468 3                  22403803.914 4  87917460.46804
G26  21305802.989 7 111962802.48807                  21305805.908 4  87243747.64804  21305806.568 6  87243737.66706  21305806.456 8  83608578.10308
C34                                  22201942.300 7  87125193.07207  22201935.283 6 115611338.72406
E31  26075736.009 6 137028914.52206                                  26075739.458 6 102326810.64806  26075740.879 6 104996204.42206
G29  20678206.623 7 108664711.66307                  20678207.440 6  84673797.39506  20678208.256 6  84673809.39706
R24  20886804.922 7 111691110.46007                                  20886812.214 6  86870890.14406  20886797.587 7  83746111.05007
E13  24811908.557 3                                                  24811923.593 6  97367367.77006  24811923.166 6  99907331.41206
S21  38213090.257 6 200811172.90306
R22  22162264.888 6 118303665.38806                                  22162272.617 6  92013989.35706
R13  19522671.659 5 104249980.35705
C44                                  21951318.312 7  86141688.59407  21951311.940 6 114306285.08406
G28  21238595.380 7 111609570.02207                  21238596.522 4  86968499.06104  21238596.258 6  86968487.04906  21238600.770 7  83344831.74907
G18  22260124.245 7 116977790.52507                  22260125.018 3  91151492.67903  22260125.983 5  91151503.71305  22260132.122 7  87353612.59607
R12  22740718.591 4
E26  24167966.671 6 127003514.40506                                  24167969.698 7  94840300.05907  24167968.553 7  97314392.56807
C24                                  22364008.739 7  87761173.76007  22364004.539 7 116455242.96507
C35                                  25303058.122 6  99294634.46206  25303048.566 6 131759613.58406
S23  38487778.789 7 202254633.92107
C25                                  21861467.092 7  85789090.67007  21861463.573 7 113838377.66407
R14  20294409.378 7 108180640.02307                                  20294416.037 5  84140511.49505
S36  38189966.329 7 200689615.44707
C38                                  39261294.697 6 154069753.11306  39261286.885 6 204443818.97806
> 2024 02 23 13 46  2.0000000  0 29
C12                                                                  21356756.561 6 111210236.68606  21356758.880 7  85994818.28907
E21  24988996.869 3                                                  24988991.134 4                  24988995.048 3
C11                                                                  23794818.069 3
R23  19228652.132 6 102860319.06306
G16  23818125.554 5
G31  20972927.082 6 110213470.22306                  20972924.471 3  85880625.05003  20972927.990 5  85880616.08605
E09  27287427.361 6 143396402.56206                                  27287432.517 5 107081756.44205  27287432.862 5 109875189.01705
G25                                                                                  22404447.284 3                  22404432.819 4  87919930.65704
G26  21305410.908 7 111960741.93307                  21305413.724 4  87242142.02804  21305414.035 6  87242132.01706  21305414.296 8  83607039.35808
C34                                  22201610.441 7  87123891.45307  22201603.501 6 115609611.56606
E31  26075327.255 6 137026763.39106                                  26075330.481 6 102325204.29606  26075331.579 6 104994556.16106
G29  20678508.515 7 108666298.12607                  20678509.310 6  84675033.59406  20678509.952 6  84675045.58906
R24  20886199.910 7 111687875.16507                                  20886206.731 6  86868373.78906  20886192.766 7  83743685.21407
E13  24812169.355 4                                                  24812181.333 6  97368380.18206  24812181.351 6  99908370.22906
S21  38213132.357 6 200811396.70906
R22  22163030.424 6 118307747.42706                                  22163037.984 6  92017164.29006
R13  19523023.105 5 104251858.06105
C44                                  21951610.903 7  86142836.51707  21951604.464 6 114307808.32406
G28  21239028.494 7 111611845.77307                  21239029.504 4  86970272.37204  21239029.016 6  86970260.36206  21239033.782 7  83346531.17707
G18  22259597.436 7 116975021.98707                  22259598.171 3  91149335.38703  22259599.684 5  91149346.38005  22259605.205 7  87351545.19507
R12  22741479.701 5
E26  24167649.825 7 127001850.62707                                  24167653.075 7  94839057.62307  24167651.800 7  97313117.72607
C24                                  22364481.582 7  87763029.80907  22364477.599 7 116457705.87707
C35                                  25303695.708 6  99297136.23406  25303685.306 6 131762933.33306
S23  38487824.386 7 202254864.71307
C25                                  21861326.410 7  85788538.95007  21861322.883 7 113837645.57507
R14  20293937.696 7 108178125.52707                                  20293943.373 5  84138555.89705
S36  38190010.764 7 200689841.53907
C38                                  39261306.632 6 154069799.88006  39261299.289 6 204443881.00706
> 2024 02 23 13 46  3.0000000  0 30
C12                                                                  21356761.697 6 111210264.72706  21356764.151 7  85994839.97407
E21                                                                  24989395.029 3                  24989398.585 3
C11                                                                  23794298.851 4                  23794332.430 5
R23  19228802.997 6 102861125.16406
G16  23817520.732 4
G31  20973024.317 6 110213981.52306                  20973021.724 3  85881023.46203  20973025.346 5  85881014.48505
E09  27287678.597 5 143397719.78105                                  27287683.343 5 107082740.04105  27287683.875 5 109876198.26705
G25                                                                                  22405076.343 3                  22405063.103 4  87922401.24204
G26  21305019.073 7 111958681.65907                  21305021.612 4  87240536.62004  21305021.604 6  87240526.61706  21305022.230 7  83605500.85407
C34                                  22201278.700 7  87122590.18407  22201271.587 6 115607884.80506
E31  26074917.388 6 137024612.35306                                  26074921.056 6 102323597.95406  26074922.081 6 104992907.92006
G29  20678810.602 7 108667885.08807                  20678811.279 6  84676270.19006  20678811.840 6  84676282.18306
R24  20885594.482 7 111684640.39307                                  20885601.339 6  86865857.87006  20885588.049 7  83741259.79707
E13  24812429.362 4                                                  24812439.255 6  97369393.00106  24812439.445 6  99909409.48206
S21  38213174.462 6 200811620.57106
R22  22163796.012 6 118311829.87706                                  22163803.101 6  92020339.55406
R13  19523374.690 5 104253736.54005
C44                                  21951903.568 7  86143984.80107  21951896.815 6 114309332.03406
G28  21239461.822 7 111614122.16307                  21239462.617 4  86972046.18504  21239462.253 6  86972034.17606  21239466.976 7  83348231.07307
G18  22259070.674 7 116972253.95407                  22259071.387 3  91147178.47603  22259072.786 6  91147189.47806  22259078.340 7  87349478.15707
R12  22742240.293 5
E26  24167332.996 6 127000187.37506                                  24167336.593 7  94837815.59307  24167335.243 7  97311843.28707
C24                                  22364954.646 7  87764886.23707  22364950.562 7 116460169.27007
C35                                  25304333.201 7  99299638.18007  25304322.682 6 131766253.32806
C08                                                                  38659006.342 5 201307586.79415  38659007.797 6 155663804.19016
S23  38487869.639 7 202255095.64207
C25                                  21861185.836 7  85787987.60707  21861182.530 7 113836913.97107
R14  20293466.582 7 108175611.42407                                  20293474.650 6  84136600.51406
S36  38190057.962 7 200690067.76407
C38                                  39261318.442 6 154069846.86906  39261311.242 6 204443943.37906
> 2024 02 23 13 46  4.0000000  0 30
C12                                                                  21356767.142 6 111210293.25306  21356769.508 7  85994862.05107
E21  24989788.507 3                                                  24989798.517 4                  24989802.829 3
C11                                                                                                  23793816.481 4
R23  19228953.606 6 102861932.14106
G16  23816917.519 5
G31  20973122.179 6 110214493.45606                  20973119.089 3  85881422.37503  20973123.114 5  85881413.34005
E09  27287929.483 6 143399037.40506                                  27287934.052 5 107083723.95305  27287934.663 5 109877207.84705
G25                                                                                  22405704.499 3                  22405693.764 4  87924872.02104
G26  21304627.241 7 111956621.70607                  21304629.531 4  87238931.46604  21304629.553 6  87238921.47506  21304630.178 8  83603962.57608
C34                                  22200947.091 7  87121289.18507  22200939.715 6 115606158.39706
E31  26074507.755 6 137022461.33906                                  26074511.860 6 102321991.68606  26074512.628 6 104991259.75906
G29  20679112.767 7 108669472.51507                  20679113.337 6  84677507.15006  20679113.962 6  84677519.14206
R24  20884989.109 7 111681406.07007                                  20884996.329 6  86863342.27706  20884983.327 7  83738834.73007
E13  24812688.805 4                                                  24812697.194 6  97370406.20106  24812697.494 6  99910449.10006
S21  38213215.874 6 200811844.39706
R22  22164560.667 6 118315912.72806                                  22164568.456 6  92023515.09506
R13  19523726.447 5 104255615.71905
C44                                  21952196.318 7  86145133.44407  21952189.111 6 114310856.23206
G28  21239895.146 7 111616399.05407                  21239895.854 4  86973820.38904  21239895.385 6  86973808.37606  21239900.323 7  83349931.36107
G18  22258544.035 7 116969486.30407                  22258544.675 3  91145021.87303  22258545.969 5  91145032.88805  22258551.535 7  87347411.41507
R12  22743001.256 5
E26  24167016.277 7 126998524.53607                                  24167020.159 7  94836573.86407  24167018.769 7  97310569.18007
C24                                  22365427.807 7  87766742.94207  22365423.553 7 116462633.03807
C35                                  25304970.630 7  99302140.25707  25304960.160 6 131769573.50106
C08                                                                  38658908.561 5 201307073.31605  38658909.234 6 155663407.12406
S23  38487915.093 7 202255326.57007
C25                                  21861045.382 7  85787436.58907  21861042.190 7 113836182.80407
R14  20292995.162 7 108173097.74807                                  20293004.657 5  84134645.31405
S36  38190100.907 7 200690293.94507
C38                                  39261330.426 6 154069894.08506  39261323.254 6 204444006.05606
> 2024 02 23 13 46  5.0000000  0 30
C12                                                                  21356772.832 6 111210322.06806  21356775.015 7  85994884.35007
E21  24990196.865 4                                                  24990204.768 4                  24990207.654 3
C11                                                                  23793261.461 4
R23  19229105.232 6 102862739.65406
G16  23816317.065 6
G31  20973220.280 6 110215005.71006                  20973216.441 3  85881821.50903  20973220.432 5  85881812.59905
E09  27288180.517 5 143400355.11305                                  27288184.485 5 107084707.96605  27288183.508 5 109878217.50005
G25                                                                                  22406331.796 3                  22406324.007 4  87927342.87304
G26  21304235.245 7 111954561.78407                  21304237.437 4  87237326.33204  21304237.550 6  87237316.34406  21304238.164 8  83602424.33908
C34                                  22200615.513 7  87119988.34507  22200608.863 7 115604432.22307
E31  26074097.820 6 137020310.06606                                  26074103.733 7 102320385.23307  26074103.312 6 104989611.38406
G29  20679415.196 7 108671060.12407                  20679415.431 6  84678744.24606  20679416.214 6  84678756.24306
R24  20884383.707 7 111678172.08207                                  20884391.344 6  86860826.95006  20884378.516 6  83736409.88606
E13  24812949.179 6 130392925.62516                                  24812955.415 6  97371419.54006  24812955.597 6  99911488.86306
S21  38213255.801 6 200812068.10606
R22  22165324.682 6 118319995.64206                                  22165333.621 6  92026690.67006
R13  19524077.869 5 104257495.37105
C44                                  21952489.122 7  86146282.22207  21952482.155 6 114312380.65206
G28  21240328.741 7 111618676.32307                  21240329.181 4  86975594.87304  21240329.057 6  86975582.88806  21240333.710 7  83351631.91507
G18  22258017.688 7 116966718.91507                  22258017.945 3  91142865.47203  22258019.030 6  91142876.44606  22258024.793 7  87345344.84407
R12  22743764.790 5
E26  24166699.968 7 126996861.92307                                  24166703.773 7  94835332.31907  24166702.275 7  97309295.24807
C24                                  22365900.912 7  87768599.82507  22365896.904 7 116465097.01907
C35                                  25305608.213 7  99304642.22007  25305597.505 7 131772893.49407
C08                                                                  38658809.233 5 201306559.92505  38658810.335 6 155663010.07106
S23  38487957.045 7 202255557.37007
C25                                  21860904.953 7  85786885.72207  21860901.525 7 113835451.80507
R14  20292523.406 7 108170584.19607                                  20292531.559 6  84132690.25406
S36  38190140.468 6 200690520.04906
C38                                  39261342.571 6 154069941.26106  39261335.099 7 204444068.63507
> 2024 02 23 13 46  6.0000000  0 30
C12                                                                  21356778.420 6 111210351.07506  21356780.627 7  85994906.79007
E21                                                                  24990611.006 3                  24990613.176 3
C11                                                                  23792744.591 4
R23  19229256.816 6 102863547.71906
G16  23815716.790 6
G31  20973317.149 6 110215518.55406                  20973313.967 3  85882221.14003  20973317.749 5  85882212.18105
E09  27288431.176 5 143401673.01705                                  27288434.902 5 107085692.17305  27288433.290 5 109879227.36505
G25                                                                                  22406962.858 3                  22406954.343 4  87929813.56504
G26  21303843.366 7 111952502.00707                  21303845.446 4  87235721.31004  21303846.022 6  87235711.33906  21303846.294 8  83600886.18408
C34                                  22200283.889 7  87118687.58607  22200278.368 7 115602706.17007
E31  26073687.579 6 137018158.68306                                  26073695.398 7 102318778.69307  26073693.803 6 104987962.91806
G29  20679717.289 7 108672647.88807                  20679717.538 6  84679981.46506  20679718.074 6  84679993.45606
R24  20883778.332 7 111674938.33907                                  20883786.349 6  86858311.82206  20883773.585 6  83733985.20606
E13  24813208.918 6 130394282.70806                                  24813214.079 6  97372432.98906  24813213.901 6  99912528.74906
S21  38213296.479 6 200812291.38606
R22  22166088.780 6 118324078.56106                                  22166098.273 6  92029866.26006
R13  19524430.277 5 104259375.31405
C44                                  21952781.873 7  86147431.08707  21952775.532 5 114313905.20105
G28  21240762.052 7 111620953.85207                  21240762.661 4  86977369.57604  21240762.737 6  86977357.58606  21240767.133 7  83353332.66707
G18  22257491.045 7 116963951.51007                  22257491.241 3  91140709.05703  22257492.413 6  91140720.04206  22257497.865 7  87343278.27107
R12  22744528.078 5
E26  24166383.555 6 126995199.36006                                  24166387.282 7  94834090.79607  24166385.804 7  97308021.33207
C24                                  22366373.823 7  87770456.67507  22366370.096 6 116467560.98406
C35                                  25306245.831 7  99307144.02607  25306235.315 7 131776213.27607
C08                                                                  38658709.905 5 201306046.37605  38658711.043 6 155662612.98106
S23  38487998.685 7 202255787.71507
C25                                  21860764.566 7  85786335.01807  21860761.038 7 113834721.06407
R14  20292051.338 7 108168070.92607                                  20292060.672 6  84130735.55606
S36  38190179.416 6 200690745.61406
C38                                  39261354.595 6 154069988.37106  39261347.025 7 204444131.14307
> 2024 02 23 13 46  7.0000000  0 30
C12                                                                  21356784.189 6 111210380.43006  21356786.458 7  85994929.48607
E21                                                                  24991016.882 4                  24991017.643 3
C11                                                                  23792228.087 5                  23792271.491 4
R23  19229408.219 6 102864356.41806
G16  23815115.419 6 125149245.05416
G31  20973414.716 6 110216031.89006                  20973411.623 3  85882621.14303  20973415.249 5  85882612.16405
E09  27288681.221 5 143402991.25305                                  27288685.281 5 107086676.58705  27288683.712 5 109880237.45305
G25                                                                                  22407591.479 3                  22407585.204 4  87932284.26604
G26  21303451.415 7 111950442.41207                  21303453.544 4  87234116.43404  21303454.259 6  87234106.44806  21303454.477 8  83599348.17708
C34                                  22199952.370 7  87117387.00807  22199947.985 7 115600980.36407
E31  26073277.296 6 137016007.22606                                  26073286.581 7 102317172.09507  26073284.302 6 104986314.41806
G29  20680019.743 7 108674235.88507                  20680019.677 6  84681218.86506  20680020.275 6  84681230.85406
R24  20883173.027 7 111671704.96707                                  20883182.241 6  86855796.96906  20883168.614 6  83731560.82606
E13  24813468.120 6 130395640.09006                                  24813472.986 6  97373446.61806  24813472.283 6  99913568.84706
S21  38213337.944 6 200812514.51906
R22  22166852.615 6 118328161.58306                                  22166862.861 6  92033041.94106  22166848.352 6  88878507.27116
R13  19524782.534 5 104261255.73705
C44                                  21953074.666 7  86148580.13007  21953068.292 5 114315429.93905
G28  21241195.493 7 111623231.79907                  21241196.220 4  86979144.59804  21241196.726 6  86979132.60806  21241200.714 7  83355033.72807
G18  22256964.259 7 116961184.31007                  22256964.609 3  91138552.79703  22256965.976 6  91138563.80206  22256970.974 7  87341211.87307
R12  22745290.959 5 121501233.33715
E26  24166067.280 6 126993537.01006                                  24166070.808 7  94832849.43607  24166069.372 7  97306747.58107
C24                                  22366846.766 7  87772313.66607  22366843.484 7 116470025.14107
C35                                  25306883.379 7  99309645.75307  25306873.384 7 131779532.97507
C08                                                                  38658610.973 6 201305532.84606  38658611.676 6 155662215.87306
S23  38488039.829 7 202256017.85307
C25                                  21860624.220 7  85785784.55607  21860620.663 7 113833990.63607
R14  20291579.032 7 108165558.00707                                  20291590.311 6  84128781.10606
S36  38190218.672 6 200690971.10206
C38                                  39261366.431 6 154070035.48606  39261358.862 7 204444193.65707
> 2024 02 23 13 46  8.0000000  0 30
C12                                                                  21356789.970 6 111210410.25306  21356792.255 7  85994952.54207
E21                                                                  24991422.583 3                  24991422.401 3
C11                                                                  23791711.677 5                  23791753.722 4
R23  19229559.802 6 102865165.96406
G16  23814514.415 5 125146076.87205
G31  20973512.244 6 110216545.88006                  20973509.489 3  85883021.65703  20973512.797 5  85883012.67505
E09  27288931.535 5 143404309.89905                                  27288935.933 5 107087661.32605  27288934.421 5 109881247.85305
G25                                                                                  22408218.472 3                  22408216.264 4  87934755.14304
G26  21303059.606 7 111948383.12607                  21303061.713 4  87232511.80004  21303062.734 6  87232501.81406  21303062.711 8  83597810.40508
C34                                  22199620.933 7  87116086.72407  22199617.119 7 115599254.95307
E31  26072867.354 6 137013855.85806                                  26072877.612 7 102315565.54507  26072874.808 6 104984665.94606
G29  20680321.890 6 108675824.29406                  20680321.900 6  84682456.58706  20680322.593 6  84682468.58206
R24  20882568.141 7 111668472.06907                                  20882577.536 6  86853282.51506  20882563.814 6  83729136.80906
E13  24813727.143 6 130396997.92606                                  24813731.797 6  97374460.58406  24813730.716 6  99914609.26706
S21  38213379.146 6 200812737.68806
R22  22167617.017 6 118332244.88106                                  22167627.119 6  92036217.83406  22167613.303 6  88881574.30606
R13  19525134.722 5 104263136.82805
C44                                  21953367.557 7  86149729.47907  21953361.180 5 114316955.08505
G28  21241629.051 7 111625510.29807                  21241629.883 4  86980920.05304  21241630.613 6  86980908.05806  21241634.345 7  83356735.20107
G18  22256437.431 7 116958417.51907                  22256438.129 3  91136396.86203  22256439.207 6  91136407.86506  22256444.236 7  87339145.75607
R12  22746053.965 5 121505298.57705
E26  24165751.051 6 126991875.05806                                  24165754.426 7  94831608.37207  24165752.994 7  97305474.14207
C24                                  22367319.872 7  87774170.94007  22367316.927 7 116472489.66907
C35                                  25307520.988 7  99312147.55707  25307511.286 7 131782852.75307
C08                                                                  38658511.828 6 201305019.52906  38658512.506 6 155661818.97206
S23  38488082.318 7 202256247.98807
C25                                  21860483.949 7  85785234.42807  21860480.530 7 113833260.64807
R14  20291107.234 7 108163045.49507                                  20291120.263 6  84126826.96806
S36  38190260.455 6 200691196.53606
C38                                  39261378.181 6 154070082.74506  39261370.980 7 204444256.37407
> 2024 02 23 13 46  9.0000000  0 30
C12                                                                  21356795.595 6 111210440.41506  21356798.230 7  85994975.87407
E21                                                                  24991827.949 3                  24991826.676 3
C11                                                                  23791194.575 5                  23791236.748 4
R23  19229711.335 6 102865976.19406
G16  23813909.275 5 125142908.46005
G31  20973609.997 6 110217060.38906                  20973607.341 3  85883422.57403  20973610.511 5  85883413.59505
E09  27289181.792 5 143405628.86405                                  27289186.892 5 107088646.23805  27289185.774 5 109882258.49105
G25  22408864.064 3                                                                  22408846.815 3                  22408847.329 4  87937226.03004
G26  21302667.596 7 111946324.01607                  21302669.932 4  87230907.30304  21302671.133 6  87230897.30906  21302670.891 8  83596272.76108
C34                                  22199289.587 7  87114786.63207  22199286.014 7 115597529.76807
E31  26072457.586 6 137011704.38606                                  26072468.499 7 102313958.93307  26072465.341 6 104983017.41506
G29  20680623.809 6 108677412.99606                  20680624.182 6  84683694.53206  20680624.798 6  84683706.51706
R24  20881963.475 7 111665239.50607                                  20881973.081 6  86850768.30806  20881959.106 6  83726713.03106
E13  24813985.639 6 130398356.09106                                  24813990.651 6  97375474.76906  24813989.275 6  99915649.90906
S21  38213421.921 6 200812960.67106
R22  22168381.740 6 118336328.33506                                  22168392.303 6  92039393.84006  22168378.451 6  88884641.43606
R13  19525487.564 5 104265018.36205
C44                                  21953660.472 7  86150879.03507  21953654.045 5 114318480.49605
G28  21242062.819 7 111627789.21407                  21242063.634 4  86982695.82504  21242064.479 6  86982683.82606  21242068.079 7  83358436.98107
G18  22255911.002 7 116955650.95207                  22255911.690 3  91134241.09503  22255912.664 6  91134252.09306  22255917.594 7  87337079.82507
R12  22746813.108 5 121509363.82805
E26  24165434.980 6 126990213.36006                                  24165438.133 7  94830367.49707  24165436.692 7  97304200.89207
C24                                  22367793.137 7  87776028.37307  22367790.133 7 116474954.39507
C35                                  25308158.503 7  99314649.30907  25308149.162 7 131786172.49207
C08                                                                  38658413.286 6 201304506.30406  38658413.581 6 155661422.09706
S23  38488125.304 7 202256477.98007
C25                                  21860343.725 7  85784684.53607  21860340.327 7 113832530.95607
R14  20290635.691 7 108160533.24207                                  20290649.926 6  84124873.00306
S36  38190302.300 6 200691421.72806
C38                                  39261390.099 6 154070130.05506  39261383.031 7 204444319.14907
> 2024 02 23 13 46 10.0000000  0 30
C12                                                                  21356800.930 6 111210470.86406  21356804.203 7  85994999.40707
E21  24992233.059 4                                                  24992231.710 3                  24992229.171 3
C11                                                                  23790677.883 5                  23790717.146 4
R23  19229862.976 6 102866787.03606
G16  23813307.658 5 125139740.04905
G31  20973708.004 6 110217575.35506                  20973705.386 3  85883823.84303  20973707.982 5  85883814.85705
E09  27289432.523 5 143406948.04305                                  27289437.965 5 107089631.31705  27289436.939 5 109883269.25305
G25  22409491.625 3                                                                  22409474.117 3                  22409477.921 4  87939697.03904
G26  21302275.686 7 111944265.01107                  21302278.128 4  87229302.89004  21302279.484 6  87229292.90206  21302279.091 8  83594735.19408
C34                                  22198958.328 7  87113486.67007  22198954.796 7 115595804.77007
E31  26072047.701 6 137009552.76306                                  26072059.055 7 102312352.19307  26072055.860 6 104981368.78206
G29  20680925.912 6 108679001.88906                  20680926.517 6  84684932.63206  20680927.219 6  84684944.63306
R24  20881358.753 7 111662007.22907                                  20881368.288 6  86848254.31906  20881354.488 6  83724289.46706
E13  24814244.286 6 130399714.42706                                  24814249.356 6  97376489.12006  24814247.903 6  99916690.72906
S21  38213465.801 6 200813183.45106
R22  22169146.539 6 118340411.80806                                  22169156.869 6  92042569.86206  22169143.546 6  88887708.61306
R13  19525839.550 5 104266900.33005
C44                                  21953953.415 7  86152028.71607  21953947.021 5 114320006.04205
G28  21242496.610 7 111630068.45807                  21242497.431 4  86984471.85804  21242498.253 7  86984459.87307  21242501.871 7  83360139.01007
G18  22255384.432 7 116952884.53407                  22255385.272 3  91132085.44003  22255386.335 6  91132096.45606  22255391.026 7  87335013.99907
R12  22747575.739 5 121513429.16005
E26  24165119.011 6 126988551.83206                                  24165121.955 7  94829126.74407  24165120.465 7  97302927.78007
C24                                  22368266.471 7  87777885.89507  22368263.561 7 116477419.25907
C35                                  25308796.027 6  99317150.96406  25308786.890 7 131789492.08807
C08                                                                  38658314.679 6 201303993.02606  38658314.564 6 155661025.17206
S23  38488168.956 7 202256707.76207
C25                                  21860203.585 7  85784134.81407  21860200.407 7 113831801.50107
R14  20290164.230 7 108158021.15107                                  20290179.904 6  84122919.16006
S36  38190345.353 6 200691646.71006
C38                                  39261402.003 6 154070177.32306  39261395.034 7 204444381.88207
> 2024 02 23 13 46 11.0000000  0 30
C12                                                                  21356806.461 6 111210501.50006  21356810.110 7  85995023.09107
E21  24992638.071 4                                                  24992635.068 3                  24992632.878 3
C11                                                                  23790161.607 5                  23790197.534 4
R23  19230014.388 6 102867598.40506
G16  23812705.045 6 125136571.46806
G31  20973806.016 6 110218090.65806                  20973803.453 3  85884225.37803  20973805.719 5  85884216.41705
E09  27289683.678 5 143408267.29905                                  27289689.076 5 107090616.48905  27289688.331 5 109884280.15005
G25  22410121.498 3                                                                  22410103.010 3                  22410108.495 4  87942167.88404
G26  21301883.643 7 111942206.04707                  21301886.356 4  87227698.50004  21301887.875 6  87227688.49906  21301887.260 8  83593197.64508
C34                                  22198627.151 7  87112186.77707  22198623.352 7 115594079.86907
E31  26071638.339 6 137007400.92606                                  26071649.410 7 102310745.29607  26071646.429 6 104979719.95606
G29  20681228.508 6 108680590.90906                  20681228.857 6  84686170.82706  20681229.704 6  84686182.83306
R24  20880754.401 7 111658775.15807                                  20880763.185 6  86845740.48406  20880750.004 6  83721866.07006
E13  24814503.050 6 130401072.91306                                  24814507.978 6  97377503.57206  24814506.572 6  99917731.64706
S21  38213510.223 6 200813405.98406
R22  22169911.493 6 118344495.29606                                  22169921.781 6  92045745.90406  22169908.511 6  88890775.80006
R13  19526192.125 5 104268782.67505
C44                                  21954246.416 7  86153178.49207  21954240.118 5 114321531.73405
G28  21242930.330 7 111632347.96607                  21242931.290 4  86986248.10504  21242931.872 6  86986236.10206  21242935.762 7  83361841.24107
G18  22254857.865 7 116950118.21207                  22254858.878 3  91129929.86903  22254860.089 6  91129940.87506  22254864.559 7  87332948.24507
R12  22748337.959 5 121517494.44305
E26  24164802.938 6 126986890.39706                                  24164805.787 7  94827886.07107  24164804.276 7  97301654.73507
C24                                  22368739.809 7  87779743.48807  22368736.971 7 116479884.20807
C35                                  25309433.392 6  99319652.48206  25309424.526 7 131792811.51207
C08                                                                  38658216.182 6 201303479.69706  38658215.961 6 155660628.24806
S23  38488211.423 7 202256937.23707
C25                                  21860063.516 7  85783585.20907  21860060.341 7 113831072.19607
R14  20289693.032 7 108155509.19207                                  20289709.664 6  84120965.42406
S36  38190388.616 6 200691871.30706
C38                                  39261414.007 6 154070224.55106  39261407.355 7 204444444.54707
> 2024 02 23 13 46 12.0000000  0 30
C12                                                                  21356812.458 6 111210532.63806  21356816.115 7  85995047.18207
E21  24993042.507 3                                                  24993038.802 3                  24993037.301 3
C11                                                                  23789645.211 5
R23  19230166.008 6 102868410.62806
G16  23812102.664 5 125133403.02905
G31  20973904.229 6 110218606.65806                  20973901.677 3  85884627.46003  20973903.494 5  85884618.49405
E09  27289934.658 5 143409587.01805                                  27289940.379 5 107091602.02305  27289939.727 5 109885291.34205
G25  22410751.755 3                                                                  22410730.656 3                  22410738.503 4  87944638.95504
G26  21301491.836 7 111940147.40307                  21301494.611 4  87226094.36604  21301496.118 6  87226084.37506  21301495.489 8  83591660.36208
C34                                  22198296.031 7  87110887.21007  22198292.060 7 115592355.40807
E31  26071229.310 6 137005249.13706                                  26071239.728 7 102309138.45707  26071236.955 6 104978071.20206
G29  20681531.041 7 108682180.38607                  20681531.291 6  84687409.38106  20681531.999 6  84687421.37706
R24  20880150.067 7 111655543.63107                                  20880158.843 6  86843227.07006  20880145.539 6  83719443.08406
E13  24814761.825 6 130402431.87606                                  24814766.553 6  97378518.39206  24814765.170 6  99918772.92906
S21  38213553.450 6 200813628.50106
R22  22170677.095 6 118348579.08206                                  22170686.253 6  92048922.18706  22170673.671 6  88893843.20606
R13  19526543.959 5 104270665.67005
C44                                  21954539.496 7  86154328.60107  21954534.114 5 114323057.91605
G28  21243364.196 7 111634628.05207                  21243365.239 4  86988024.79304  21243365.775 6  86988012.79106  21243369.696 7  83363543.90407
G18  22254331.427 7 116947352.30607                  22254332.568 3  91127774.61703  22254333.921 6  91127785.62406  22254338.165 7  87330882.79607
R12  22749100.012 5 121521560.03405
E26  24164486.770 6 126985229.40106                                  24164489.723 7  94826645.70907  24164488.207 7  97300382.01907
C24                                  22369213.322 7  87781601.36807  22369210.524 7 116482349.51807
C35                                  25310070.804 6  99322154.08606  25310061.949 7 131796131.04007
C08                                                                  38658117.867 6 201302966.64306  38658117.740 6 155660231.51906
S23  38488256.148 7 202257166.76607
C25                                  21859923.547 7  85783035.97307  21859920.533 7 113830343.37907
R14  20289222.075 7 108152997.72007                                  20289239.942 6  84119012.05206
S36  38190431.655 6 200692095.97006
C38                                  39261426.071 6 154070271.94006  39261419.468 7 204444507.41907
> 2024 02 23 13 46 13.0000000  0 30
C12                                                                  21356818.431 6 111210564.29906  21356822.160 7  85995071.65007
E21  24993447.484 3                                                  24993443.801 3                  24993440.261 3
C11                                                                  23789128.873 5
R23  19230318.091 6 102869223.68606
G16  23811500.462 5 125130234.65805
G31  20974002.748 6 110219123.34006                  20974000.071 3  85885030.07403  20974001.911 5  85885021.08605
E09  27290186.284 5 143410907.14105                                  27290191.477 5 107092587.79705  27290191.382 5 109886302.88205
G25  22411380.809 3                                                                  22411360.167 3                  22411367.805 4  87947110.22804
G26  21301100.015 7 111938089.11007                  21301102.982 4  87224490.50204  21301104.573 6  87224480.51006  21301103.753 8  83590123.32508
C34                                  22197964.969 7  87109587.92807  22197960.706 7 115590631.30907
E31  26070820.187 6 137003097.42906                                  26070829.933 7 102307531.67507  26070827.563 6 104976422.49506
G29  20681833.703 7 108683770.28107                  20681833.800 6  84688648.25706  20681834.669 6  84688660.25306
R24  20879545.844 7 111652312.61107                                  20879554.566 6  86840714.08106  20879541.261 6  83717020.45906
E13  24815020.368 6 130403791.29106                                  24815025.148 6  97379533.54306  24815023.642 6  99919814.54006
S21  38213596.194 6 200813851.04206
R22  22171442.482 6 118352663.20206                                  22171451.657 6  92052098.70706  22171438.788 6  88896910.83906
R13  19526896.779 5 104272549.36205
C44                                  21954832.674 7  86155479.02007  21954827.564 5 114324584.48005
G28  21243798.061 7 111636908.67907                  21243799.290 4  86989801.90404  21243799.779 6  86989789.90606  21243803.759 7  83365246.97607
G18  22253805.268 7 116944586.78007                  22253806.343 3  91125619.66703  22253807.540 6  91125630.66706  22253811.876 7  87328817.63207
R12  22749862.934 5 121525625.92005
E26  24164170.558 6 126983568.79606                                  24164173.759 7  94825405.64807  24164172.230 7  97299109.60307
C24                                  22369686.923 7  87783459.51607  22369684.008 7 116484815.22207
C35                                  25310708.232 6  99324655.76706  25310699.334 7 131799450.66807
C08                                                                  38658019.685 6 201302453.80606  38658019.706 6 155659834.94706
S23  38488300.099 7 202257396.26107
C25                                  21859783.734 7  85782487.06707  21859780.827 7 113829615.01007
R14  20288751.323 7 108150486.69407                                  20288769.759 6  84117059.03806
S36  38190474.221 6 200692320.71706
C38                                  39261438.273 6 154070319.47106  39261431.549 7 204444570.50307
> 2024 02 23 13 46 14.0000000  0 30
C12                                                                  21356824.824 6 111210596.27906  21356828.262 7  85995096.38707
E21  24993853.029 4                                                  24993848.331 4                  24993843.919 3
C11                                                                  23788612.825 5
R23  19230469.969 6 102870037.38406
G16  23810898.095 5 125127066.21605
G31  20974100.721 6 110219640.53406                  20974098.554 3  85885433.07603  20974100.465 5  85885424.11305
E09  27290437.499 5 143412227.56405                                  27290442.724 5 107093573.83705  27290442.970 5 109887314.62805
G25  22412008.379 3                                                                  22411990.844 3                  22411997.343 4  87949581.52704
G26  21300708.159 7 111936030.97207                  21300711.375 4  87222886.75704  21300712.814 6  87222876.77206  21300712.038 8  83588586.40508
C34                                  22197633.962 7  87108288.83207  22197629.572 7 115588907.46907
E31  26070411.028 6 137000945.61706                                  26070420.118 7 102305924.80807  26070418.169 6 104974773.71206
G29  20682136.485 7 108685360.44807                  20682136.364 6  84689887.34906  20682137.300 6  84689899.35306
R24  20878941.718 7 111649081.93907                                  20878949.999 6  86838201.33106  20878937.058 6  83714598.11506
E13  24815279.347 6 130405150.98606                                  24815283.607 6  97380548.90306  24815282.189 6  99920856.40606
S21  38213638.862 6 200814073.40806
R22  22172207.768 6 118356747.42506                                  22172216.931 6  92055275.31306  22172203.902 6  88899978.58006
R13  19527249.521 5 104274433.53005
C44                                  21955125.864 7  86156629.63007  21955120.876 5 114326111.26305
G28  21244232.229 7 111639189.73507                  21244233.445 4  86991579.35004  21244233.814 6  86991567.35406  21244237.870 7  83366950.35507
G18  22253279.209 7 116941821.47807                  22253280.189 3  91123464.89003  22253280.795 6  91123475.89106  22253285.698 7  87326752.63807
R12  22750624.438 5 121529691.82705
E26  24163854.440 6 126981908.44406                                  24163857.811 7  94824165.76707  24163856.328 7  97297837.38407
C24                                  22370160.518 7  87785317.82307  22370157.543 7 116487281.10607
C35                                  25311345.670 6  99327157.41506  25311336.802 7 131802770.24807
C08                                                                  38657921.479 6 201301940.99806  38657921.372 6 155659438.42306
S23  38488344.704 7 202257625.58407
C25                                  21859643.960 7  85781938.39107  21859641.060 7 113828886.94107
R14  20288280.282 7 108147975.96207                                  20288299.495 6  84115106.21606
S36  38190519.089 6 200692545.30806
C38                                  39261450.493 6 154070367.06606  39261443.778 7 204444633.66207
> 2024 02 23 13 46 15.0000000  0 30
C12                                                                  21356831.097 6 111210628.66806  21356834.562 7  85995121.42907
E21  24994256.982 4                                                  24994253.357 3                  24994247.326 3
C11                                                                  23788097.077 5
R23  19230621.900 6 102870851.84106
G16  23810295.377 5 125123897.83605
G31  20974199.398 6 110220158.31006                  20974197.010 3  85885836.54103  20974198.662 5  85885827.55305
E09  27290689.033 5 143413548.31405                                  27290694.194 5 107094560.10605  27290694.441 5 109888326.64205
G25  22412639.728 3                                                                  22412622.067 3                  22412627.174 4  87952052.93504
G26  21300316.400 7 111933973.08307                  21300319.799 4  87221283.21204  21300320.921 6  87221273.22306  21300320.392 8  83587049.66608
C34                                  22197302.964 7  87106989.97607  22197298.386 7 115587183.94107
E31  26070001.958 6 136998793.81206                                  26070010.286 7 102304317.93307  26070008.756 6 104973124.93406
G29  20682439.313 7 108686950.94007                  20682438.981 6  84691126.69506  20682439.788 6  84691138.69006
R24  20878337.631 7 111645851.69107                                  20878346.404 6  86835688.92506  20878332.998 6  83712176.06406
E13  24815538.080 6 130406511.04006                                  24815542.169 6  97381564.52706  24815540.776 6  99921898.52906
S21  38213681.642 6 200814295.66506
R22  22172973.678 6 118360831.87406                                  22172981.906 6  92058452.10706  22172969.088 6  88903046.46906
R13  19527602.507 5 104276318.29405
C44                                  21955419.198 7  86157780.48407  21955414.442 5 114327638.40105
G28  21244666.283 7 111641471.25407                  21244667.653 4  86993357.15604  21244667.926 6  86993345.15306  21244671.952 7  83368654.08607
G18  22252753.360 7 116939056.48107                  22252754.076 3  91121310.34803  22252754.254 6  91121321.33606  22252759.528 7  87324687.87907
R12  22751386.814 5 121533757.94005
E26  24163538.401 6 126980248.39706                                  24163541.926 7  94822926.12207  24163540.408 7  97296565.39107
C24                                  22370634.130 7  87787176.33607  22370631.129 7 116489747.27907
C35                                  25311983.170 6  99329659.06706  25311973.998 7 131806089.82807
C08                                                                  38657822.975 6 201301428.33906  38657823.254 6 155659042.00506
S23  38488387.654 7 202257854.80207
C25                                  21859504.285 7  85781389.99107  21859501.448 7 113828159.24007
R14  20287809.679 7 108145465.50407                                  20287828.695 6  84113153.65006
S36  38190561.891 6 200692769.81806
C38                                  39261462.689 6 154070414.73006  39261455.790 7 204444696.90207
> 2024 02 23 13 46 16.0000000  0 30
C12                                                                  21356837.557 6 111210661.30706  21356840.792 7  85995146.67507
E21  24994662.174 3                                                  24994658.406 4                  24994651.078 3
C11                                                                  23787581.369 5
R23  19230773.920 6 102871666.87706
G16  23809692.468 5 125120729.25805
G31  20974298.011 6 110220676.51406                  20974295.645 3  85886240.34403  20974297.187 5  85886231.34505
E09  27290940.559 5 143414869.26605                                  27290945.658 5 107095546.52805  27290945.971 5 109889338.80905
G25                                                                                                                  22413257.282 4  87954524.29304
G26  21299924.734 7 111931915.26407                  21299928.264 4  87219679.71704  21299929.166 6  87219669.72106  21299928.760 8  83585512.99208
C34                                  22196972.032 7  87105691.23607  22196967.363 7 115585460.56807
E31  26069592.585 6 136996641.82906                                  26069600.486 7 102302710.94407  26069599.354 6 104971476.00906
G29  20682742.223 7 108688541.63007                  20682741.643 6  84692366.19906  20682742.499 6  84692378.19106
R24  20877733.808 7 111642621.70007                                  20877742.256 6  86833176.69806  20877729.047 6  83709754.21906
E13  24815796.992 6 130407871.31206                                  24815800.796 6  97382580.30706  24815799.296 6  99922940.78306
S21  38213723.353 6 200814517.70106
R22  22173738.803 6 118364916.34106                                  22173746.907 6  92061628.91306  22173734.220 6  88906114.40306
R13  19527956.132 5 104278203.45305
C44                                  21955712.481 7  86158931.48407  21955707.477 5 114329165.74405
G28  21245100.591 7 111643753.09407                  21245101.910 4  86995135.21004  21245102.186 6  86995123.20006  21245106.135 7  83370358.04707
G18  22252227.399 7 116936291.63707                  22252227.985 3  91119155.92703  22252227.974 6  91119166.90906  22252233.477 7  87322623.21707
R12  22752149.033 5 121537824.02705
E26  24163222.483 6 126978588.50206                                  24163226.073 7  94821686.60307  24163224.556 7  97295293.54207
C24                                  22371107.776 7  87789034.94107  22371104.637 7 116492213.58307
C35                                  25312620.623 6  99332160.59806  25312611.413 7 131809409.29207
C08                                                                  38657724.084 6 201300915.67006  38657725.051 6 155658645.57306
S23  38488431.024 7 202258083.75907
C25                                  21859364.655 7  85780841.75807  21859361.774 7 113827431.75507
R14  20287338.994 7 108142955.26507                                  20287357.966 6  84111201.24006
S36  38190604.989 6 200692994.06906
C38                                  39261474.827 6 154070462.37306  39261467.941 7 204444760.14207
> 2024 02 23 13 46 17.0000000  0 30
C12                                                                  21356844.060 6 111210694.43306  21356847.019 7  85995172.28007
E21  24995066.882 4                                                  24995062.421 3                  24995055.635 3
C11                                                                  23787065.098 5
R23  19230926.050 6 102872482.72806
G16  23809089.276 5 125117560.81305
G31  20974396.767 6 110221195.37206                  20974394.419 3  85886644.64203  20974396.112 5  85886635.64305
E09  27291191.815 5 143416190.59605                                  27291197.139 5 107096533.24905  27291197.546 5 109890351.26205
G25                                                                                                                  22413887.037 4  87956995.89204
G26  21299533.233 7 111929857.77407                  21299536.751 4  87218076.48104  21299537.452 6  87218066.49106  21299537.219 8  83583976.55408
C34                                  22196641.159 7  87104392.78807  22196636.389 7 115583737.58107
E31  26069183.305 6 136994489.88106                                  26069190.773 7 102301103.98807  26069189.984 6 104969827.12606
G29  20683045.093 7 108690132.74407                  20683044.372 6  84693606.02706  20683045.376 6  84693618.01406
R24  20877130.110 7 111639392.23707                                  20877138.279 6  86830664.89106  20877125.108 6  83707332.77506
E13  24816055.928 6 130409232.01006                                  24816059.616 6  97383596.43106  24816058.098 6  99923983.42206
S21  38213764.050 6 200814739.73006
R22  22174503.993 6 118369001.09006                                  22174512.289 6  92064805.95206  22174499.462 6  88909182.54906
R13  19528308.786 5 104280089.21905
C44                                  21956005.838 7  86160082.78207  21956001.365 5 114330693.45005
G28  21245534.926 7 111646035.47307                  21245536.305 4  86996913.68504  21245536.392 6  86996901.67806  21245540.392 7  83372062.42507
G18  22251701.523 7 116933527.16407                  22251701.903 3  91117001.79003  22251702.040 6  91117012.80506  22251707.506 7  87320558.84107
R12  22752912.409 5 121541890.42305
E26  24162906.626 6 126976929.00806                                  24162910.323 7  94820447.36707  24162908.770 7  97294021.97707
C24                                  22371581.481 7  87790893.81807  22371578.438 7 116494680.23607
C35                                  25313258.085 6  99334662.23206  25313248.668 7 131812728.83307
C08                                                                  38657625.511 6 201300403.23606  38657626.832 6 155658249.33306
S23  38488475.740 7 202258312.69507
C25                                  21859225.076 7  85780293.86307  21859222.123 7 113826704.72107
R14  20286868.313 7 108140445.45707                                  20286886.362 5  84109249.18305
S36  38190649.003 6 200693218.26706
C38                                  39261487.053 6 154070510.17406  39261480.060 6 204444823.55706
> 2024 02 23 13 46 18.0000000  0 30
C12                                                                  21356850.418 6 111210728.11006  21356853.507 7  85995198.32907
E21  24995470.500 4                                                  24995468.127 3                  24995459.798 3
C11                                                                  23786548.031 5
R23  19231078.638 6 102873299.47506
G16  23808486.009 5 125114392.51305
G31  20974495.858 6 110221714.98006                  20974493.331 3  85887049.53203  20974495.024 5  85887040.54905
E09  27291443.397 5 143417512.43405                                  27291448.750 5 107097520.33805  27291449.014 5 109891364.09705
G25                                                                                  22414511.766 3                  22414516.946 4  87959467.70304
G26  21299141.885 7 111927800.66407                  21299145.337 4  87216473.54104  21299145.904 6  87216463.56006  21299145.805 8  83582440.40608
C34                                  22196310.384 7  87103094.68007  22196305.251 7 115582015.05707
E31  26068774.015 6 136992338.10006                                  26068781.181 7 102299497.11407  26068780.578 6 104968178.34606
G29  20683347.867 7 108691724.33607                  20683347.208 6  84694846.23106  20683348.551 6  84694858.23906
R24  20876526.199 7 111636163.36607                                  20876534.534 6  86828153.56006  20876521.345 6  83704911.76206
E13  24816315.206 6 130410593.23106                                  24816318.521 6  97384612.91406  24816317.126 6  99925026.42206
S21  38213802.877 6 200814961.76306
R22  22175268.598 6 118373086.24106                                  22175277.059 6  92067983.27706  22175264.732 6  88912250.96606
R13  19528662.351 5 104281975.71005
C44                                  21956299.402 7  86161234.43507  21956295.499 5 114332221.65905
G28  21245968.992 7 111648318.48407                  21245970.804 4  86998692.64504  21245970.758 6  86998680.65106  21245974.833 7  83373767.26907
G18  22251175.654 7 116930763.14307                  22251175.982 3  91114848.01303  22251176.183 6  91114859.00306  22251181.618 7  87318494.80607
R12  22753676.758 5 121545957.08805
E26  24162591.059 6 126975269.97406                                  24162594.618 7  94819208.48107  24162593.050 7  97292750.77307
C24                                  22372055.231 7  87792753.01407  22372052.211 7 116497147.31607
C35                                  25313895.631 6  99337163.96906  25313885.975 7 131816048.54207
C08                                                                  38657526.892 6 201299891.10706  38657528.686 6 155657853.31906
S23  38488521.279 7 202258541.69807
C25                                  21859085.610 7  85779746.37107  21859082.540 7 113825978.20907
R14  20286397.820 7 108137936.19607                                  20286415.064 5  84107297.55205
S36  38190691.314 6 200693442.50106
C38                                  39261499.234 6 154070558.15606  39261492.185 7 204444887.25107
> 2024 02 23 13 46 19.0000000  0 30
C12                                                                  21356856.931 6 111210762.41206  21356860.041 7  85995224.85507
E21  24995875.150 3                                                  24995872.948 3                  24995864.310 3
C11                                                                  23786030.964 5
R23  19231231.410 6 102874117.16806
G16  23807883.190 5 125111224.40405
G31  20974594.619 6 110222235.32606                  20974592.346 3  85887454.99503  20974594.236 5  85887445.99805
E09  27291695.315 5 143418834.82105                                  27291700.480 5 107098507.83405  27291700.606 5 109892377.35805
G25                                                                                                                  22415147.356 4  87961939.77004
G26  21298750.596 7 111925743.99707                  21298753.989 4  87214870.94604  21298754.370 6  87214860.96806  21298754.471 8  83580904.58708
C34                                  22195979.709 7  87101796.96407  22195974.494 7 115580293.03607
E31  26068364.783 6 136990186.47906                                  26068371.608 7 102297890.38707  26068371.137 6 104966529.70006
G29  20683650.801 7 108693316.48907                  20683650.142 6  84696086.86806  20683651.333 6  84696098.86406
R24  20875922.396 7 111632935.07607                                  20875930.917 6  86825642.68806  20875917.705 6  83702491.19006
E13  24816574.441 6 130411955.03906                                  24816577.706 6  97385629.84206  24816576.241 6  99926069.88506
S21  38213846.122 6 200815183.96206
R22  22176034.098 6 118377171.80906                                  22176042.624 6  92071160.92106  22176030.085 6  88915319.70106
R13  19529016.368 5 104283863.01405
C44                                  21956593.030 7  86162386.50707  21956588.918 5 114333750.36905
G28  21246403.436 7 111650602.17707                  21246405.410 4  87000472.14504  21246405.252 6  87000460.12606  21246409.370 7  83375472.61007
G18  22250649.696 7 116927999.62507                  22250650.128 3  91112694.62903  22250650.020 6  91112705.63306  22250655.782 7  87316431.15207
R12  22754439.673 4 121550024.17104
E26  24162275.575 6 126973611.46306                                  24162279.013 7  94817969.98507  24162277.397 7  97291479.97307
C24                                  22372529.133 7  87794612.58307  22372526.004 7 116499614.87907
C35                                  25314533.151 6  99339665.88006  25314523.561 7 131819368.47707
C08                                                                  38657428.544 6 201299379.29006  38657430.566 6 155657457.56106
S23  38488564.381 7 202258770.84007
C25                                  21858946.195 7  85779199.27407  21858943.168 7 113825252.24707
R14  20285927.432 7 108135427.45607                                  20285943.889 5  84105346.34705
S36  38190734.080 6 200693666.86106
C38                                  39261511.580 6 154070606.41106  39261504.678 7 204444951.26407
> 2024 02 23 13 46 20.0000000  0 29
C12                                                                  21356863.852 6 111210797.26206  21356866.437 7  85995251.81907
E21  24996280.016 4                                                  24996277.393 4
C11                                                                  23785513.763 5
R23  19231384.356 6 102874935.24506
G16  23807280.360 5 125108055.59805
G31  20974693.328 6 110222756.49306                  20974691.536 3  85887861.11903  20974692.409 5  85887852.24005
E09  27291945.466 5 143420156.63405                                  27291952.912 5 107099494.83205  27291952.249 5 109893390.14505
G26  21298359.096 7 111923686.86007                  21298362.561 4  87213267.98304  21298363.245 6  87213258.00806  21298363.144 8  83579368.50808
C34                                  22195649.087 7  87100500.32007  22195644.502 7 115578572.43607
E31  26067955.014 6 136988033.98506                                  26067962.398 7 102296283.01907  26067961.188 6 104964880.38906
G29  20683953.716 7 108694908.36807                  20683953.041 6  84697327.29706  20683953.548 6  84697339.28806
R24  20875319.194 7 111629708.88407                                  20875327.738 6  86823133.40706  20875314.465 6  83700072.14606
E13  24816832.855 5 130413316.06505                                  24816836.624 7  97386646.18807  24816835.242 6  99927112.77906
S21  38213891.616 6 200815407.90606
R22  22176798.167 6 118381255.62206                                  22176807.157 6  92074337.20506  22176795.311 6  88918387.05306
R13  19529370.529 5 104285751.32405
C44                                  21956886.342 7  86163538.40707  21956882.344 5 114335278.86905
G28  21246838.297 7 111652887.58007                  21246840.351 4  87002252.98704  21246839.957 6  87002240.99306  21246844.249 7  83377179.24007
G18  22250123.626 7 116925238.13807                  22250124.637 3  91110542.82703  22250124.755 6  91110553.79506  22250130.350 7  87314368.93207
R12  22755201.120 4 121554092.63904
E26  24161959.851 6 126971954.39606                                  24161963.544 7  94816732.51207  24161962.128 7  97290210.24607
C24                                  22373003.487 7  87796473.27707  22373000.950 6 116502084.03906
C35                                  25315170.150 7  99342166.58107  25315161.233 7 131822686.85007
C08                                                                  38657330.392 5 201298866.21405  38657332.182 6 155657060.93206
S23  38488608.905 7 202259001.53207
C25                                  21858807.026 7  85778652.31007  21858804.308 7 113824526.43407
R14  20285456.442 7 108132917.88707                                  20285471.855 6  84103394.40206
S36  38190775.496 6 200693892.94606
C38                                  39261523.587 7 154070653.41407  39261516.564 7 204445013.63007
> 2024 02 23 13 46 21.0000000  0 30
C12                                                                  21356870.624 6 111210832.84006  21356873.246 7  85995279.29207
E21  24996684.326 4                                                  24996683.823 4
C11                                                                  23784996.977 5                  23784989.595 5
R23  19231537.391 6 102875753.46606
G16  23806673.527 6 125104885.29706
G31  20974792.382 6 110223278.40906                  20974790.854 3  85888267.84503  20974792.578 6  85888258.80406
E09  27292197.910 5 143421476.86805                                  27292203.857 4 107100481.34304  27292203.343 4 109894401.68604
G25                                                                                  22416398.816 3                  22416412.487 3
G26  21297967.673 7 111921628.53907                  21297970.890 4  87211664.11304  21297971.690 6  87211654.20106  21297970.521 7  83577831.46507
C34                                  22195319.184 7  87099205.27007  22195314.027 6 115576853.93006
E31  26067545.188 6 136985879.78806                                  26067552.021 7 102294674.38007  26067550.818 6 104963229.79006
G29  20684256.740 7 108696499.30407                  20684255.754 6  84698566.97906  20684256.228 6  84698578.96806
R24  20874716.815 7 111626485.87707                                  20874725.397 6  86820626.65206  20874711.795 6  83697655.50506
E13  24817089.909 6 130414675.38506                                  24817095.387 7  97387661.40107  24817094.024 6  99928154.45506
S21  38213939.850 6 200815635.03606
R22  22177562.774 7 118385336.09907                                  22177571.087 6  92077510.98206  22177559.804 6  88921452.12006
R13  19529725.010 5 104287641.12805
C44                                  21957179.401 7  86164689.62707  21957173.911 5 114336806.53105
G28  21247273.299 6 111655175.42306                  21247275.718 4  87004035.73304  21247275.105 6  87004023.71106  21247279.597 7  83378887.73207
G18  22249598.553 7 116922479.69407                  22249599.765 3  91108393.38303  22249600.333 6  91108404.36306  22249605.406 7  87312309.09807
R12  22755965.279 4
E26  24161644.796 6 126970299.38406                                  24161648.456 7  94815496.80207  24161647.278 7  97288942.22407
C24                                  22373478.166 7  87798335.76207  22373475.384 6 116504555.40506
C35                                  25315806.984 7  99344665.13907  25315798.175 7 131826002.34007
C08                                                                  38657231.584 6 201298350.77606  38657233.224 6 155656662.30506
S23  38488653.489 7 202259235.15307
C25                                  21858667.348 7  85778105.05307  21858664.931 7 113823800.23707
R14  20284985.322 7 108130406.37707                                  20284998.886 6  84101441.11706
S36  38190819.810 7 200694122.12707
C38                                  39261534.980 7 154070698.17307  39261527.947 7 204445072.98007
> 2024 02 23 13 46 22.0000000  0 31
C12                                                                  21356877.660 6 111210868.80906  21356880.416 7  85995307.15307
E21  24997087.667 4                                                  24997090.070 4
C11                                                                  23784480.281 4                  23784476.772 5
R23  19231690.289 6 102876572.06006
G16  23806068.441 6
G31  20974891.765 6 110223800.35206                  20974890.330 3  85888674.54503  20974892.722 6  85888665.58806
E09  27292449.126 5 143422796.50405                                  27292456.609 4 107101467.45304  27292455.242 4 109895412.08204
G25  22417033.547 4                                                                  22417030.683 3                  22417044.475 3
G26  21297575.728 7 111919569.36007                  21297579.026 4  87210059.58204  21297579.044 6  87210049.52306  21297578.272 8  83576293.64408
C34                                  22194989.535 7  87097910.92507  22194983.950 7 115575136.47807
E31  26067134.759 7 136983723.99707                                  26067141.689 7 102293064.52907  26067140.858 6 104961577.94706
G29  20684559.252 6 108698090.06806                  20684558.433 6  84699806.52806  20684559.152 6  84699818.52406
R24  20874114.586 7 111623264.52907                                  20874122.821 6  86818121.11906  20874109.346 6  83695240.15206
E13  24817347.229 5 130416034.64905                                  24817353.841 7  97388676.25507  24817352.598 7  99929195.76407
S21  38213987.659 6 200815863.52106
R22  22178327.410 6 118389415.27506                                  22178335.116 6  92080683.61006  22178323.839 6  88924515.98306
R13  19530078.630 5 104289531.83005
C44                                  21957472.800 7  86165840.80207  21957467.553 5 114338334.07005
G28  21247708.737 7 111657464.55507                  21247711.264 4  87005819.47404  21247710.121 6  87005807.44606  21247715.055 7  83380597.09307
G18  22249073.888 7 116919723.10607                  22249075.243 3  91106245.40103  22249076.163 6  91106256.40406  22249080.954 7  87310250.59907
R12  22756730.825 4
E26  24161330.130 6 126968645.96206                                  24161333.613 7  94814261.98207  24161332.772 7  97287675.19007
C24                                  22373953.137 7  87800199.27507  22373950.090 6 116507028.27106
C35                                  25316443.513 7  99347162.81607  25316434.143 7 131829316.59207
E33  27211769.399 6 142998804.68216                                  27211780.428 5 106784869.93815  27211778.209 5 109570550.79415
C08                                                                  38657132.519 6 201297834.77406  38657134.203 7 155656263.24107
S23  38488698.383 7 202259470.28507
C25                                  21858527.673 7  85777557.51807  21858526.027 7 113823073.68707
R14  20284513.978 7 108127893.52507
S36  38190862.515 7 200694352.96607
C38                                  39261546.379 7 154070741.88207  39261538.760 7 204445131.06307
> 2024 02 23 13 46 23.0000000  0 31
C12                                                                  21356884.584 6 111210905.48506  21356887.423 7  85995335.45707
E21  24997491.629 4                                                  24997496.272 3                  24997489.896 3
C11                                                                  23783962.673 5                  23783962.971 5
R23  19231843.788 6 102877391.06206
G16  23805463.087 6
G31  20974991.777 7 110224323.91007                  20974990.108 3  85889082.52503  20974992.772 6  85889073.49006
E09  27292699.389 5 143424116.70605                                  27292708.559 5 107102453.55805  27292708.231 5 109896423.11305
G25  22417665.866 3                                                                                                  22417677.545 3
G26  21297184.354 7 111917510.47707                  21297187.229 4  87208455.26304  21297186.972 6  87208445.31706  21297185.797 7  83574756.19407
C34                                  22194660.097 7  87096617.93607  22194654.233 7 115573420.73807
E31  26066724.464 7 136981568.68107                                  26066731.805 7 102291455.04507  26066731.042 6 104959926.48406
G29  20684861.751 6 108699680.41306                  20684861.079 6  84701045.76106  20684862.063 6  84701057.76606
R24  20873512.625 7 111620045.56207                                  20873521.189 6  86815617.45906  20873507.393 6  83692826.54806
E13  24817605.068 6 130417392.83506                                  24817612.077 7  97389690.47307  24817611.019 7  99930236.49507
S21  38214033.644 6 200816094.01106
R22  22179091.187 6 118393492.60906                                  22179099.123 6  92083854.86806  22179087.724 6  88927578.56106
R13  19530432.844 5 104291423.32805
C44                                  21957766.412 7  86166991.60107  21957759.545 6 114339861.29006
G28  21248145.030 7 111659755.71607                  21248147.212 4  87007604.77904  21248146.214 6  87007592.78106  21248150.937 7  83382307.98407
G18  22248549.681 7 116916968.28807                  22248551.137 3  91104098.79403  22248551.954 6  91104109.80906  22248556.942 7  87308193.46507
R12  22757492.503 4
E26  24161015.897 6 126966993.53906                                  24161018.859 7  94813028.07407  24161018.304 7  97286409.10207
C24                                  22374428.485 7  87802063.79707  22374424.846 6 116509502.45206
C35                                  25317079.782 7  99349658.98107  25317070.233 7 131832628.93107
E33  27211184.143 6 142995730.34306                                  27211195.400 5 106782574.13105  27211193.800 6 109568195.15306
C08                                                                  38657033.018 6 201297317.04506  38657034.808 7 155655862.98607
S23  38488743.255 6 202259706.66206
C25                                  21858388.421 7  85777010.57307  21858386.357 6 113822347.84306
R14  20284042.857 7 108125380.75107
S36  38190905.558 6 200694585.30606
C38                                  39261557.208 6 154070784.26306  39261549.628 6 204445187.44606
> 2024 02 23 13 46 24.0000000  0 31
C12                                                                  21356891.966 6 111210942.79106  21356894.590 7  85995364.34107
E21  24997897.084 3                                                  24997903.199 3
C11                                                                  23783446.944 6                  23783449.257 6
R23  19231996.714 6 102878210.66006
G16  23804860.476 5
G31  20975092.242 7 110224849.05907                  20975090.145 3  85889491.73103  20975092.392 6  85889482.73906
E09  27292951.085 6 143425437.05206                                  27292960.648 6 107103439.73906  27292959.044 5 109897434.54305
G25  22418299.186 3                                                                                                  22418309.918 4
G26  21296792.549 7 111915452.32907                  21296795.438 4  87206851.50504  21296794.915 6  87206841.57206  21296794.021 7  83573219.34007
C34                                  22194331.044 7  87095326.17207  22194324.884 7 115571706.63107
E31  26066313.986 6 136979413.75706                                  26066321.851 7 102289845.84907  26066320.134 7 104958275.30807
G29  20685163.889 6 108701270.59006                  20685163.702 6  84702284.86406  20685164.710 6  84702296.92906
R24  20872911.306 7 111616828.73607                                  20872919.064 6  86813115.45906  20872905.874 6  83690414.64406
E13  24817863.157 6 130418750.21206                                  24817870.223 7  97390704.11107  24817869.351 7  99931276.55007
S21  38214077.859 6 200816326.06706
R22  22179854.852 6 118397568.36106                                  22179862.550 5  92087024.88705  22179851.361 6  88930639.96006
R13  19530787.479 5 104293315.81805
C44                                  21958059.748 7  86168142.31507  21958052.273 6 114341388.12106
G28  21248581.477 7 111662048.87407                  21248583.558 4  87009391.64304  21248582.555 6  87009379.62006  21248587.299 7  83384020.44507
G18  22248025.986 7 116914214.96807                  22248027.254 3  91101953.35603  22248028.150 6  91101964.37706  22248033.073 7  87306137.42007
R12  22758255.362 4
E26  24160701.695 6 126965342.19806                                  24160705.022 6  94811794.94306  24160704.053 6  97285143.85606
C24                                  22374903.813 7  87803929.10407  22374900.175 6 116511977.51306
C35                                  25317715.589 6  99352153.88706  25317705.847 6 131835939.45706
E33  27210599.549 6 142992657.88506                                  27210610.907 5 106780279.73905  27210609.546 5 109565840.91405
C08                                                                  38656933.535 6 201296798.13406  38656935.219 6 155655461.63906
S23  38488791.816 6 202259943.68306
C25                                  21858249.327 7  85776464.33407  21858247.536 6 113821623.03406
R14  20283571.636 7 108122868.19007                                  20283577.304 6  84095578.02706
S36  38190949.914 7 200694819.18407
C38                                  39261567.865 6 154070825.47406  39261560.255 6 204445241.92006
> 2024 02 23 13 46 25.0000000  0 31
C12                                                                  21356899.149 6 111210980.25706  21356901.793 7  85995393.27207
E21  24998301.976 4                                                  24998308.869 4                  24998302.976 3
C11                                                                  23782931.379 7                  23782934.619 6
R23  19232150.008 6 102879030.56006
G16  23804256.316 6
G31  20975193.012 7 110225374.53707                  20975190.285 4  85889901.19804  20975193.196 6  85889892.20906
E09  27293201.138 6 143426757.10806                                  27293210.475 6 107104425.14906  27293208.905 6 109898446.04606
G25                                                                                                                  22418941.977 3
G26  21296400.679 7 111913393.93407                  21296403.690 4  87205247.57204  21296403.724 6  87205237.59906  21296402.285 7  83571682.19807
C34                                  22194001.903 7  87094034.70407  22193995.859 7 115569992.81507
E31  26065903.871 7 136977258.29507                                  26065911.648 7 102288236.24507  26065910.521 7 104956623.69507
G29  20685466.351 6 108702860.61806                  20685466.305 6  84703523.84806  20685467.655 6  84703535.86106
R24  20872309.879 7 111613612.52807                                  20872317.503 6  86810614.02006  20872304.468 6  83688003.16106
E13  24818121.237 6 130420107.36606                                  24818128.458 7  97391717.55507  24818127.669 7  99932316.43407
S21  38214122.112 6 200816558.36606
R22  22180618.346 6 118401643.53706                                  22180626.491 6  92090194.40706  22180614.692 5  88933700.80305
R13  19531141.825 5 104295208.61305                                  19531148.680 5  81118514.12515
C44                                  21958352.953 7  86169292.80007  21958345.233 5 114342914.81705
G28  21249018.078 7 111664342.55907                  21249019.999 4  87011178.92004  21249018.874 6  87011166.87906  21249023.822 7  83385733.24007
G18  22247502.253 7 116911462.18307                  22247503.432 4  91099808.34104  22247504.266 6  91099819.38206  22247509.249 7  87304081.80807
R12  22759019.947 4
E26  24160387.601 6 126963691.11806                                  24160390.654 6  94810562.01606  24160389.814 6  97283878.69706
C24                                  22375379.274 7  87805794.70907  22375375.241 6 116514453.18106
C35                                  25318351.251 6  99354648.25506  25318341.677 7 131839249.45307
E33  27210014.961 6 142989585.82806                                  27210026.120 5 106777985.65605  27210025.064 5 109563487.12905
C08                                                                  38656833.566 6 201296278.67306  38656835.470 6 155655059.97306
S23  38488836.835 6 202260181.31906
C25                                  21858109.840 7  85775918.03107  21858108.263 7 113820898.09107
R14  20283100.273 7 108120355.38907                                  20283104.679 6  84093623.55706
S36  38190994.562 7 200695053.26707
C38                                  39261578.213 6 154070866.14106  39261571.320 6 204445295.74806
> 2024 02 23 13 46 26.0000000  0 31
C12                                                                  21356906.349 6 111211018.14806  21356909.014 7  85995422.59207
E21  24998704.632 4
C11                                                                  23782416.262 6                  23782419.744 6
R23  19232303.523 6 102879851.09606
G16  23803651.837 6
G31  20975292.880 7 110225900.70607                  20975290.587 4  85890311.21004  20975294.134 6  85890302.10806
E09  27293451.453 7 143428076.94707                                  27293460.654 6 107105410.85706  27293459.174 6 109899457.45206
G25                                                                                                                  22419574.559 3
G26  21296009.060 7 111911335.58107                  21296011.998 4  87203643.66204  21296012.228 6  87203633.68206  21296010.933 8  83570145.15508
C34                                  22193672.896 7  87092743.77607  22193666.811 6 115568279.84606
E31  26065493.820 7 136975102.58307                                  26065501.488 7 102286626.45707  26065500.579 7 104954971.92907
G29  20685769.048 7 108704450.63207                  20685768.904 6  84704762.82606  20685770.068 6  84704774.82706
R24  20871708.541 7 111610397.32407                                  20871716.117 6  86808113.40706  20871703.254 6  83685592.40606
E13  24818379.351 6 130421464.20706                                  24818386.518 7  97392730.83307  24818385.966 7  99933356.15307
S21  38214163.877 7 200816791.16807
R22  22181381.803 6 118405717.82306                                  22181390.356 6  92093363.35706  22181377.765 5  88936761.07605
R13  19531496.660 5 104297102.09005                                  19531503.140 5  81119986.76705
C44                                  21958646.163 7  86170443.30407  21958638.520 6 114344441.39606
G28  21249455.110 7 111666637.14607                  21249456.646 4  87012966.90804  21249455.755 6  87012954.96306  21249460.340 7  83387446.76907
G18  22246978.901 7 116908710.21907                  22246979.839 4  91097663.96604  22246980.744 6  91097674.99906  22246985.587 7  87302026.79107
R12  22759784.250 4
E26  24160073.598 5 126962040.69305                                  24160076.622 6  94809329.54406  24160075.665 6  97282614.09106
C24                                  22375854.611 7  87807660.74707  22375850.860 6 116516929.31206
C35                                  25318986.533 6  99357142.04106  25318976.914 6 131842558.41206
E33  27209430.467 6 142986514.42706                                                                  27209440.415 5 109561133.56905
C08                                                                  38656733.561 6 201295758.51906  38656735.529 6 155654657.82306
S23  38488884.157 5 202260419.34805
C25                                  21857970.606 7  85775372.01307  21857969.026 6 113820173.58206
R14  20282628.738 7 108117842.39507                                  20282633.271 6  84091669.01506
S36  38191040.593 7 200695287.79507
C38                                  39261588.237 6 154070906.03206  39261581.003 6 204445348.95706
